     2.11           OBSERVATION DATA    G (GPS)             RINEX VERSION / TYPE
teqc  2015Nov6      NGS Web User        20160201 21:29:49UTCPGM / RUN BY / DATE
Solaris x86 5.10|AMD64|cc SC5.8 -xarch=amd64|=+|=+          COMMENT
teqc  2015Nov6      NOAA/NOS/NGS/CORS   20160102 10:54:45UTCCOMMENT
teqc  2015Nov6      UNAVCO Archive Ops  20160102 03:53:16UTCCOMMENT
BIT 2 OF LLI FLAGS DATA COLLECTED UNDER A/S CONDITION       COMMENT
input file: seat201601010000.bnx                            COMMENT
RINEX file created by UNAVCO GPS Archive.                   COMMENT
For more information contact archive@unavco.org             COMMENT
Monument ID: 18010                                          COMMENT
UNAVCO 4-char name:   SEAT                                  COMMENT
4-char name from Log or data file: SEAT                     COMMENT
Monument location: 47.653977 -122.309476 44.2292            COMMENT
Visit ID: 101410                                            COMMENT
End of DB comments                                          COMMENT
 SNR is mapped to RINEX snr flag value [0-9]                COMMENT
  L1 & L2: min(max(int(snr_dBHz/6), 0), 9)                  COMMENT
teqc edited: all SBAS satellites excluded                   COMMENT
teqc edited: all Compass satellites excluded                COMMENT
teqc edited: all QZSS satellites excluded                   COMMENT
SEAT                                                        MARKER NAME
40457M002                                                   MARKER NUMBER
UW                  University of Washington                OBSERVER / AGENCY
4552261579          TRIMBLE NETRS       1.3-0               REC # / TYPE / VERS
0220061145          TRM29659.00     UNAV                    ANT # / TYPE
 -2300592.8570 -3637848.2430  4691079.2150                  APPROX POSITION XYZ
        0.1233        0.0000        0.0000                  ANTENNA: DELTA H/E/N
     1     1                                                WAVELENGTH FACT L1/2
     7    L1    L2    C1    P2    P1    S1    S2            # / TYPES OF OBSERV
     1.0000                                                 INTERVAL
teqc windowed: start @ 2016 Jan  1 00:00:00.000             COMMENT
teqc windowed:  end  @ 2016 Jan  1 01:00:00.000             COMMENT
teqc edited: all GLONASS satellites excluded                COMMENT
  2016     1     1     0     0    0.0000000     GPS         TIME OF FIRST OBS
                                                            END OF HEADER
 16  1  1  0  0  0.0000000  0  9G06G26G01G16G09G03G23G32G31
 124614293.573 6  97102024.12843  23713308.505    23713304.4184
        38.100          23.0004
 116280965.511 7  90608556.63345  22127518.847    22127512.4744
        45.000          33.6004
 130647000.186 5                  24861326.996
        33.300
 119044580.916 6  92761997.74444  22653413.997    22653404.8104
        41.800          26.0004
 122186188.490 6  95210042.22144  23251240.288    23251234.5594
        40.500          27.7004
 107722297.717 8  83939452.03747  20498869.798    20498861.7254
        50.500          42.5004
 110704786.878 8  86263455.48846  21066400.926    21066388.0464
        49.800          38.6004
 117977668.042 7  91930608.87845  22450400.336    22450390.9734
        45.300          31.3004
 121112769.666 7  94373601.74644  23046976.524    23046965.9314
        42.900          29.3004
 16  1  1  0  0  1.0000000  0  9G06G26G01G16G09G03G23G32G31
 124613331.240 6  97101274.25743  23713126.257    23713121.2324
        38.300          23.9004
 116279824.405 7  90607667.45845  22127302.033    22127295.1904
        45.000          34.0004
 130650515.848 5                  24861995.091
        33.100
 119041560.154 6  92759643.90444  22652839.206    22652829.8434
        41.700          25.1004
 122183267.907 6  95207766.44744  23250685.008    23250678.6344
        40.800          26.5004
 107723518.016 8  83940402.91247  20499102.343    20499093.8014
        50.500          42.7004
 110703164.019 8  86262190.92346  21066092.159    21066079.2214
        49.600          38.5004
 117980719.560 7  91932986.68445  22450981.033    22450971.7884
        45.000          32.1004
 121115982.125 7  94376104.97444  23047587.452    23047577.3864
        42.400          28.4004
 16  1  1  0  0  2.0000000  0  9G06G26G01G16G09G03G23G32G31
 124612369.621 6  97100524.95043  23712942.272    23712938.2434
        38.700          23.6004
 116278683.950 7  90606778.79245  22127084.935    22127078.1514
        45.100          34.0004
 130654031.519 5                  24862664.373
        34.600
 119038539.812 6  92757290.39844  22652264.689    22652254.9164
        41.600          26.0004
 122180347.499 6  95205490.81644  23250129.306    23250122.8744
        40.800          26.2004
 107724738.930 8  83941354.27847  20499334.367    20499326.2944
        50.300          42.9004
 110701541.479 8  86260926.60346  21065783.941    21065770.8864
        49.200          38.8004
 117983771.369 7  91935364.71845  22451561.609    22451552.3634
        45.300          31.5004
 121119194.785 7  94378608.35644  23048199.259    23048188.5484
        42.500          29.2004
 16  1  1  0  0  3.0000000  0  9G06G26G01G16G09G03G23G32G31
 124611408.387 6  97099775.93043  23712759.939    23712755.2074
        38.800          22.0004
 116277543.955 7  90605890.48745  22126868.095    22126861.6634
        45.200          34.0004
 130657546.952 5                  24863334.767
        34.400
 119035519.724 6  92754937.08844  22651689.634    22651680.7404
        41.600          26.8004
 122177427.039 6  95203215.14344  23249573.623    23249566.7814
        40.300          27.2004
 107725960.258 8  83942305.95747  20499567.073    20499558.5904
        50.500          42.9004
 110699919.044 8  86259662.37246  21065475.170    21065461.8814
        49.100          38.6004
 117986823.326 7  91937742.86745  22452143.074    22452133.5944
        44.900          31.6004
 121122407.508 7  94381111.78944  23048810.706    23048799.7614
        42.600          29.0004
 16  1  1  0  0  4.0000000  0  9G06G26G01G16G09G03G23G32G31
 124610447.987 6  97099027.56943  23712576.490    23712571.9924
        38.300          22.6004
 116276404.763 7  90605002.80545  22126651.225    22126644.7934
        45.200          34.2004
 130661062.621 5                  24864003.372
        34.300
 119032500.184 7  92752584.19944  22651115.158    22651106.0294
        42.000          26.5004
 122174506.862 6  95200939.69144  23249017.820    23249011.3304
        40.400          27.0004
 107727182.334 8  83943258.22447  20499799.705    20499791.8674
        51.000          42.9004
 110698297.036 8  86258398.47746  21065165.711    21065153.3014
        49.300          38.6004
 117989875.730 7  91940121.35845  22452723.582    22452714.2194
        45.000          31.2004
 121125620.560 7  94383615.47944  23049421.824    23049411.4654
        42.500          29.4004
 16  1  1  0  0  5.0000000  0  9G06G26G01G16G09G03G23G32G31
 124609488.124 6  97098279.63343  23712394.431    23712389.7584
        38.400          22.5004
 116275266.107 7  90604115.54145  22126434.418    22126428.0454
        45.300          34.1004
 130664578.100 5                  24864673.112
        34.800
 119029480.939 6  92750231.54444  22650540.869    22650531.2724
        41.800          25.5004
 122171586.738 6  95198664.27444  23248461.946    23248455.6904
        40.500          27.9004
 107728404.931 8  83944210.89847  20500032.322    20500024.0734
        51.100          42.9004
 110696675.237 8  86257134.74146  21064857.688    21064844.1654
        49.400          38.9004
 117992928.335 7  91942500.01345  22453304.739    22453295.4354
        45.200          31.5004
 121128833.727 7  94386119.25544  23050033.146    23050022.7874
        42.700          29.4004
 16  1  1  0  0  6.0000000  0  9G06G26G01G16G09G03G23G32G31
 124608528.823 6  97097532.14343  23712211.902    23712206.9944
        38.700          22.5004
 116274127.998 7  90603228.70445  22126217.975    22126211.1334
        45.500          34.4004
 130668093.536 5                  24865341.293
        34.000
 119026462.045 6  92747879.16644  22649966.591    22649956.9944
        41.700          26.2004
 122168666.657 6  95196388.88944  23247905.955    23247900.2854
        40.000          27.4004
 107729628.048 8  83945163.98647  20500265.044    20500256.5614
        50.900          43.0004
 110695053.657 8  86255871.17046  21064548.925    21064535.9294
        50.100          39.0004
 117995981.143 7  91944878.82545  22453885.721    22453876.3584
        44.900          31.5004
 121132047.019 7  94388623.12944  23050644.732    23050634.3144
        42.800          29.7004
 16  1  1  0  0  7.0000000  0  9G06G26G01G16G09G03G23G32G31
 124607570.342 6  97096785.27543  23712029.834    23712024.8674
        37.900          22.3004
 116272990.716 7  90602342.52045  22126001.618    22125994.9524
        45.700          34.2004
 130671609.139 5                  24866010.178
        33.700
 119023443.747 7  92745527.24444  22649391.932    22649382.7454
        42.000          25.8004
 122165746.863 6  95194113.73244  23247350.317    23247344.4124
        39.900          28.3004
 107730851.933 8  83946117.65447  20500497.673    20500489.4834
        50.700          43.0004
 110693432.540 8  86254607.96446  21064240.517    21064227.8724
        49.800          38.8004
 117999034.454 7  91947258.02945  22454466.601    22454457.0624
        45.000          31.6004
 121135260.673 7  94391127.28644  23051256.440    23051245.7294
        43.100          29.9004
 16  1  1  0  0  8.0000000  0  9G06G26G01G16G09G03G23G32G31
 124606612.237 6  97096038.68943  23711847.305    23711842.1634
        38.400          22.5004
 116271853.827 7  90601456.62745  22125785.514    22125778.7314
        45.500          34.2004
 130675124.490 5                  24866679.139
        34.300
 119020425.624 6  92743175.46444  22648818.004    22648808.3494
        41.800          26.1004
 122162827.001 6  95191838.51844  23246794.963    23246788.8244
        40.200          27.3004
 107732076.214 8  83947071.64447  20500730.917    20500722.6684
        50.900          43.0004
 110691811.488 8  86253344.80746  21063931.907    21063919.0284
        49.700          39.1004
 118002087.849 7  91949637.29745  22455046.936    22455038.4534
        45.200          31.7004
 121138474.330 7  94393631.45644  23051868.192    23051857.3654
        43.000          28.7004
 16  1  1  0  0  9.0000000  0  9G06G26G01G16G09G03G23G32G31
 124605655.047 6  97095292.80543  23711665.061    23711659.8014
        38.800          22.5004
 116270717.832 7  90600571.44545  22125569.200    22125562.5924
        45.700          34.0004
 130678640.060 5                  24867347.814
        34.300
 119017408.165 7  92740824.19144  22648243.136    22648234.1254
        42.000          25.3004
 122159907.527 6  95189563.61644  23246240.266    23246233.2484
        40.600          26.1004
 107733301.308 8  83948026.26347  20500963.849    20500955.6594
        50.700          43.0004
 110690190.963 8  86252082.05946  21063623.221    21063611.1634
        49.600          39.2004
 118005141.763 7  91952016.96845  22455628.669    22455619.6004
        45.500          31.6004
 121141688.423 7  94396135.95944  23052479.637    23052468.8094
        43.100          28.1004
 16  1  1  0  0 10.0000000  0  9G06G26G01G16G09G03G23G32G31
 124604698.157 6  97094547.18143  23711483.295    23711478.5044
        38.500          22.2004
 116269582.118 7  90599686.47445  22125353.323    22125346.2464
        45.200          34.3004
 130682155.286 5                  24868014.775
        33.300
 119014390.756 7  92738472.98444  22647669.128    22647659.8244
        42.400          26.0004
 122156987.829 6  95187288.53144  23245684.164    23245677.6744
        40.800          28.3004
 107734526.711 8  83948981.11947  20501196.848    20501188.5404
        50.700          42.8004
 110688570.415 8  86250819.29146  21063314.999    21063302.3544
        49.600          39.0004
 118008195.666 7  91954396.63045  22456209.705    22456200.6354
        45.200          32.2004
 121144902.372 7  94398640.34744  23053092.060    23053080.7634
        43.500          28.4004
 16  1  1  0  0 11.0000000  0  9G06G26G01G16G09G03G23G32G31
 124603742.299 6  97093802.36143  23711300.767    23711296.2104
        38.300          22.0004
 116268447.479 7  90598802.33745  22125137.163    22125130.0284
        45.300          34.0004
 130685670.879 5                  24868684.731
        33.700
 119011374.164 7  92736122.40644  22647095.211    22647085.7324
        42.600          26.0004
 122154068.674 6  95185013.87444  23245128.325    23245121.6004
        40.300          27.8004
 107735753.090 8  83949936.74047  20501430.228    20501422.4484
        50.700          42.7004
 110686950.550 8  86249557.06646  21063006.812    21062993.5814
        49.700          39.2004
 118011250.248 7  91956776.81845  22456790.653    22456781.7604
        45.200          32.0004
 121148116.931 7  94401145.20344  23053703.655    23053691.8894
        42.900          28.1004
 16  1  1  0  0 12.0000000  0  9G06G26G01G16G09G03G23G32G31
 124602786.850 6  97093057.86443  23711119.793    23711114.6504
        37.900          22.5004
 116267313.195 7  90597918.48145  22124920.988    22124914.4974
        45.800          34.5004
 130689186.222 5                  24869354.406
        33.700
 119008357.728 7  92733771.94844  22646521.571    22646511.9744
        43.000          26.3004
 122151149.366 6  95182739.08844  23244573.185    23244566.3424
        40.400          26.6004
 107736979.812 8  83950892.62747  20501663.944    20501655.9304
        50.700          42.5004
 110685330.685 8  86248294.83646  21062698.297    21062685.5354
        49.600          39.0004
 118014304.865 7  91959157.03745  22457372.344    22457363.0994
        45.100          32.0004
 121151331.419 7  94403650.00444  23054315.469    23054303.8804
        43.000          28.6004
 16  1  1  0  0 13.0000000  0  9G06G26G01G16G09G03G23G32G31
 124601832.070 6  97092313.88543  23710937.261    23710932.7054
        38.400          22.3004
 116266179.630 7  90597035.18645  22124705.719    22124698.5254
        45.600          34.3004
 130692701.639 5                  24870023.626
        34.100
 119005341.776 7  92731421.85144  22645947.679    22645937.8484
        42.600          26.3004
 122148230.302 6  95180464.50344  23244017.607    23244010.8824
        40.500          27.5004
 107738207.215 8  83951849.04347  20501897.474    20501888.9904
        50.900          42.5004
 110683711.227 8  86247032.92146  21062390.581    21062377.5854
        49.600          38.9004
 118017359.885 7  91961537.57245  22457953.804    22457944.3244
        45.300          31.5004
 121154546.235 7  94406155.07044  23054926.542    23054915.4214
        43.100          28.1004
 16  1  1  0  0 14.0000000  0  9G06G26G01G16G09G03G23G32G31
 124600877.758 6  97091570.25943  23710755.594    23710751.0384
        38.600          22.3004
 116265046.521 7  90596152.24045  22124489.631    22124483.0814
        45.700          34.4004
 130696216.848 5                  24870692.563
        33.400
 119002326.058 7  92729071.93644  22645373.915    22645364.0844
        42.700          26.9004
 122145311.166 6  95178189.86144  23243462.745    23243455.7854
        40.400          26.7004
 107739435.038 8  83952805.78847  20502131.390    20502122.8484
        50.700          42.4004
 110682091.869 8  86245771.08246  21062082.690    21062069.8114
        49.800          38.8004
 118020415.002 7  91963918.18145  22458534.989    22458525.7444
        45.300          31.7004
 121157761.027 7  94408660.12144  23055538.695    23055527.3984
        42.900          28.6004
 16  1  1  0  0 15.0000000  0  9G06G26G01G16G09G03G23G32G31
 124599924.314 6  97090827.31143  23710574.840    23710569.4044
        38.400          22.2004
 116263914.231 7  90595269.94145  22124274.410    22124267.5094
        45.700          34.3004
 130699732.236 5                  24871361.491
        32.600
 118999310.944 7  92726722.50744  22644799.786    22644790.6004
        42.600          26.5004
 122142392.383 6  95175915.48644  23242906.559    23242900.3034
        40.600          27.1004
 107740663.673 8  83953763.16447  20502365.142    20502356.8934
        50.700          42.7004
 110680473.010 8  86244509.63846  21061774.348    21061761.5284
        49.800          39.0004
 118023470.636 7  91966299.20345  22459116.827    22459107.3484
        45.300          31.3004
 121160976.247 7  94411165.50144  23056149.778    23056138.6574
        42.700          29.0004
 16  1  1  0  0 16.0000000  0  9G06G26G01G16G09G03G23G32G31
 124598971.394 6  97090084.77343  23710393.201    23710388.0594
        38.400          22.5004
 116262782.502 7  90594388.07145  22124058.626    22124052.3114
        45.200          34.2004
 130703247.540 5                  24872030.536
        33.300
 118996296.122 7  92724373.30144  22644226.270    22644216.8494
        42.500          26.4004
 122139473.631 6  95173641.14344  23242351.299    23242344.4574
        40.500          27.8004
 107741892.779 8  83954720.90847  20502599.057    20502590.8664
        50.800          42.6004
 110678854.313 8  86243248.32046  21061465.606    21061453.5474
        49.300          38.9004
 118026526.457 7  91968680.35345  22459698.102    22459688.6814
        44.600          31.4004
 121164191.576 7  94413670.95644  23056761.393    23056750.7994
        42.600          28.9004
 16  1  1  0  0 17.0000000  0  9G06G26G01G16G09G03G23G32G31
 124598019.072 6  97089342.70343  23710212.495    23710207.3534
        38.300          22.5004
 116261651.360 7  90593506.66245  22123843.495    22123836.9464
        45.100          34.0004
 130706762.815 5                  24872699.455
        33.500
 118993281.714 7  92722024.41444  22643652.967    22643643.6634
        42.300          26.7004
 122136554.958 6  95171366.86344  23241795.497    23241789.7104
        40.800          27.2004
 107743122.479 8  83955679.12047  20502833.246    20502824.8794
        51.100          42.6004
 110677235.899 8  86241987.21746  21061157.738    21061146.0314
        49.600          38.7004
 118029582.552 7  91971061.72345  22460279.750    22460270.6224
        44.700          31.4004
 121167407.050 7  94416176.53244  23057373.498    23057362.5534
        42.600          28.5004
 16  1  1  0  0 18.0000000  0  9G06G26G01G16G09G03G23G32G31
 124597067.395 6  97088601.14743  23710030.699    23710026.2014
        38.700          22.6004
 116260520.872 7  90592625.77045  22123628.922    22123621.8454
        45.100          34.2004
 130710278.000 5                  24873367.795
        33.600
 118990267.730 7  92719675.86144  22643079.191    22643069.6534
        42.000          26.0004
 122133636.446 6  95169092.70444  23241240.403    23241234.2054
        41.100          27.4004
 107744352.782 8  83956637.79447  20503066.728    20503058.8314
        50.800          42.1004
 110675617.787 8  86240726.34946  21060850.040    21060837.1614
        49.600          38.5004
 118032638.937 7  91973443.32045  22460861.422    22460852.1184
        44.600          31.4004
 121170622.728 7  94418682.25444  23057985.493    23057974.3134
        43.200          28.5004
 16  1  1  0  0 19.0000000  0  9G06G26G01G16G09G03G23G32G31
 124596116.426 6  97087860.13543  23709849.635    23709844.8444
        38.600          22.6004
 116259391.086 7  90591745.41945  22123413.760    22123406.7424
        45.400          34.2004
 130713793.341 5                  24874037.081
        33.500
 118987254.210 6  92717327.66644  22642506.096    22642496.4414
        41.800          26.3004
 122130718.126 6  95166818.69644  23240685.610    23240678.6514
        41.600          27.8004
 107745583.769 8  83957597.00647  20503301.240    20503292.6984
        50.300          42.0004
 110674000.018 8  86239465.75346  21060542.131    21060529.6624
        49.800          38.6004
 118035695.717 7  91975825.22045  22461442.763    22461433.5764
        44.500          31.4004
 121173838.702 7  94421188.22044  23058597.430    23058586.4854
        43.200          28.3004
 16  1  1  0  0 20.0000000  0  9G06G26G01G16G09G03G23G32G31
 124595166.596 6  97087120.01143  23709669.841    23709664.1714
        38.300          22.6004
 116258262.436 7  90590865.95945  22123198.787    22123192.1794
        45.200          34.5004
 130717309.064 5                  24874706.297
        33.600
 118984241.584 6  92714980.17444  22641931.953    22641923.1774
        41.700          26.7004
 122127800.402 6  95164545.14544  23240130.136    23240123.6454
        40.800          28.1004
 107746815.809 8  83958557.04547  20503535.500    20503527.3684
        50.700          42.2004
 110672383.033 8  86238205.77046  21060234.497    21060222.1454
        49.900          38.6004
 118038753.266 7  91978207.72945  22462024.841    22462015.5954
        44.500          31.5004
 121177055.344 7  94423694.70644  23059209.387    23059198.6774
        43.000          28.4004
 16  1  1  0  0 21.0000000  0  9G06G26G01G16G09G03G23G32G31
 124594216.799 6  97086379.91043  23709488.594    23709483.6854
        38.700          22.8004
 116257133.842 7  90589986.53845  22122984.511    22122977.1994
        45.500          34.4004
 130720824.215 5                  24875374.755
        33.500
 118981228.791 6  92712632.54544  22641358.823    22641349.5784
        41.800          26.7004
 122124882.265 6  95162271.27844  23239574.524    23239568.4434
        40.800          27.9004
 107748047.883 8  83959517.09347  20503770.332    20503761.8484
        50.700          42.4004
 110670765.746 8  86236945.54246  21059926.806    21059914.1024
        49.800          38.6004
 118041810.534 7  91980590.00845  22462606.324    22462597.3714
        44.500          32.0004
 121180271.624 7  94426200.89944  23059821.674    23059810.7884
        43.200          28.5004
 16  1  1  0  0 22.0000000  0  9G06G26G01G16G09G03G23G32G31
 124593267.668 6  97085640.33143  23709308.101    23709303.1924
        38.900          22.8004
 116256005.888 7  90589107.61545  22122769.794    22122762.7174
        45.800          34.1004
 130724339.372 5                  24876044.677
        33.400
 118978216.435 7  92710285.26344  22640785.155    22640776.3794
        42.000          27.6004
 122121964.256 6  95159997.51144  23239019.857    23239013.3084
        41.300          27.4004
 107749280.575 8  83960477.63547  20504004.784    20503996.4764
        50.700          42.0004
 110669148.785 8  86235685.57746  21059618.994    21059606.9944
        49.600          38.5004
 118044868.090 7  91982972.51645  22463188.712    22463179.0574
        44.700          31.8004
 121183488.094 7  94428707.25444  23060433.788    23060422.8434
        43.000          29.0004
 16  1  1  0  0 23.0000000  0  9G06G26G01G16G09G03G23G32G31
 124592319.024 6  97084901.11843  23709127.106    23709122.3734
        38.200          22.6004
 116254878.440 7  90588229.07845  22122555.430    22122548.4124
        45.800          34.9004
 130727854.402 5                  24876714.160
        33.700
 118975204.334 6  92707938.17844  22640211.802    22640203.6114
        41.700          25.9004
 122119046.257 6  95157723.74744  23238463.838    23238457.9924
        41.600          27.3004
 107750513.747 8  83961438.55146  20504239.522    20504230.9804
        50.400          41.9004
 110667531.943 8  86234425.70546  21059311.181    21059299.7084
        49.600          38.6004
 118047925.840 7  91985355.17645  22463770.027    22463760.6644
        44.600          31.2004
 121186704.668 7  94431213.68744  23061046.010    23061035.2414
        43.400          28.9004
 16  1  1  0  0 24.0000000  0  9G06G26G01G16G09G03G23G32G31
 124591371.401 6  97084162.70243  23708946.806    23708942.1324
        38.600          22.5004
 116253751.985 7  90587351.32345  22122340.954    22122333.6424
        45.600          34.8004
 130731369.747 5                  24877382.316
        34.800
 118972193.029 7  92705591.71244  22639638.876    22639630.5104
        42.300          25.6004
 122116128.749 6  95155450.37044  23237908.959    23237902.7614
        41.100          27.8004
 107751747.854 8  83962400.19147  20504474.241    20504465.8754
        50.600          42.1004
 110665915.791 8  86233166.35746  21059003.690    21058991.7484
        49.700          38.6004
 118050984.232 7  91987738.34345  22464351.891    22464343.1144
        44.900          31.2004
 121189921.767 7  94433720.52344  23061657.825    23061647.1144
        42.900          29.1004
 16  1  1  0  0 25.0000000  0  9G06G26G01G16G09G03G23G32G31
 124590424.058 6  97083424.52843  23708765.853    23708761.7654
        38.400          22.3004
 116252625.833 7  90586473.80945  22122126.936    22122119.6834
        45.600          34.3004
 130734884.733 5                  24878051.915
        34.600
 118969181.787 7  92703245.30244  22639065.639    22639057.2154
        42.500          26.0004
 122113211.026 6  95153176.82444  23237353.196    23237347.1164
        41.200          27.7004
 107752982.236 8  83963362.04847  20504709.147    20504700.8404
        50.800          42.1004
 110664299.574 8  86231906.97346  21058696.477    21058684.1254
        49.700          38.7004
 118054042.579 7  91990121.46745  22464934.036    22464925.2014
        44.700          31.2004
 121193138.742 7  94436227.26744  23062269.870    23062259.1594
        43.200          29.3004
 16  1  1  0  0 26.0000000  0  9G06G26G01G16G09G03G23G32G31
 124589477.433 6  97082686.91143  23708586.743    23708581.6594
        38.600          22.3004
 116251500.370 7  90585596.82545  22121912.579    22121905.1514
        45.800          34.3004
 130738399.807 5                  24878720.950
        34.300
 118966171.004 7  92700899.24344  22638492.628    22638484.0274
        42.000          26.1004
 122110293.493 6  95150903.42944  23236797.912    23236792.3014
        41.400          28.0004
 107754217.263 8  83964324.41147  20504943.865    20504936.0274
        50.800          42.0004
 110662683.705 8  86230647.85746  21058389.012    21058376.0164
        49.600          38.7004
 118057101.294 7  91992504.88645  22465515.582    22465506.9234
        44.700          31.4004
 121196355.961 7  94438734.20944  23062883.101    23062871.8044
        43.200          29.6004
 16  1  1  0  0 27.0000000  0  9G06G26G01G16G09G03G23G32G31
 124588531.453 6  97081949.77943  23708406.719    23708402.0454
        38.400          22.2004
 116250375.621 7  90584720.39745  22121698.307    22121691.2314
        45.800          34.0004
 130741914.876 5                  24879390.389
        34.600
 118963160.676 7  92698553.52944  22637919.753    22637911.7974
        42.200          27.1004
 122107376.138 6  95148630.18844  23236243.918    23236237.1934
        41.400          27.8004
 107755452.950 8  83965287.28046  20505179.057    20505171.0424
        50.900          41.9004
 110661068.187 8  86229389.01246  21058081.584    21058068.8224
        49.800          39.0004
 118060160.329 7  91994888.54845  22466098.136    22466089.2424
        45.000          32.1004
 121199573.472 7  94441241.37144  23063495.066    23063483.9454
        43.400          29.1004
 16  1  1  0  0 28.0000000  0  9G06G26G01G16G09G03G23G32G31
 124587586.162 6  97081213.17743  23708226.851    23708221.7674
        37.700          22.5004
 116249251.509 7  90583844.46845  22121484.669    22121477.2994
        45.400          34.0004
 130745429.946 5                  24880058.592
        34.100
 118960150.799 7  92696208.17044  22637347.611    22637339.0114
        42.400          26.6004
 122104458.945 6  95146357.05544  23235688.637    23235682.0294
        41.900          27.0004
 107756689.252 8  83966250.63646  20505414.450    20505406.0254
        50.700          41.8004
 110659452.963 8  86228130.40046  21057774.274    21057761.3364
        49.500          39.0004
 118063219.740 7  91997272.50345  22466679.979    22466671.0854
        44.900          31.2004
 121202791.164 7  94443748.66944  23064106.936    23064096.2844
        43.900          29.7004
 16  1  1  0  0 29.0000000  0  9G06G26G01G16G09G03G23G32G31
 124586641.341 6  97080476.96143  23708047.268    23708041.6564
        37.600          22.5004
 116248127.844 7  90582968.88445  22121270.210    22121263.4264
        45.600          33.8004
 130748944.858 5                  24880726.764
        33.500
 118957141.151 7  92693862.99544  22636774.675    22636765.9584
        42.400          26.2004
 122101541.702 6  95144083.87744  23235133.666    23235126.8234
        41.700          27.0004
 107757926.000 8  83967214.33746  20505650.055    20505641.5714
        50.800          41.9004
 110657837.867 8  86226871.88446  21057466.309    21057454.1334
        49.900          39.0004
 118066279.227 7  91999656.51845  22467262.111    22467253.2764
        44.700          31.4004
 121206008.924 7  94446256.02844  23064719.273    23064707.9184
        43.800          29.6004
 16  1  1  0  0 30.0000000  0  9G06G26G01G16G09G03G23G32G31
 124585697.395 6  97079741.41343  23707866.948    23707862.0984
        37.700          22.6004
 116247005.071 7  90582094.00845  22121056.937    22121049.7434
        45.400          34.0004
 130752459.973 5                  24881395.925
        34.000
 118954132.155 7  92691518.33844  22636202.851    22636193.5474
        42.000          27.6004
 122098624.831 6  95141810.99344  23234577.682    23234571.2504
        41.300          27.0004
 107759163.577 8  83968178.68147  20505885.181    20505876.8744
        50.900          42.1004
 110656223.298 8  86225613.77946  21057159.155    21057147.2144
        49.500          38.8004
 118069339.281 7  92002040.97245  22467844.413    22467835.7544
        44.700          31.5004
 121209227.106 7  94448763.71644  23065332.266    23065320.7944
        43.600          29.1004
 16  1  1  0  0 31.0000000  0  9G06G26G01G16G09G03G23G32G31
 124584753.765 6  97079006.12643  23707687.970    23707682.8864
        37.800          23.2004
 116245882.633 7  90581219.37445  22120843.424    22120836.4054
        45.700          33.9004
 130755974.744 5                  24882064.458
        34.200
 118951123.252 7  92689173.75744  22635630.004    22635621.0524
        42.100          27.4004
 122095707.800 7  95139537.99444  23234023.322    23234016.4214
        42.000          27.1004
 107760401.411 8  83969143.22946  20506120.989    20506112.7404
        50.700          41.9004
 110654608.693 8  86224355.64946  21056851.970    21056839.5604
        49.400          38.8004
 118072399.275 7  92004425.38545  22468426.691    22468417.4464
        44.300          31.8004
 121212445.159 7  94451271.30044  23065943.965    23065933.0204
        43.200          29.0004
 16  1  1  0  0 32.0000000  0  9G06G26G01G16G09G03G23G32G31
 124583811.078 6  97078271.56143  23707508.270    23707503.1274
        37.700          22.6004
 116244761.118 7  90580345.46945  22120630.322    22120622.6594
        45.500          34.0004
 130759489.848 5                  24882733.568
        33.900
 118948115.050 7  92686829.70444  22635057.184    22635048.5244
        42.400          27.0004
 122092791.172 6  95137265.30744  23233468.929    23233461.5004
        41.900          27.4004
 107761640.176 8  83970108.49746  20506356.595    20506347.9944
        50.500          41.8004
 110652994.691 8  86223097.98046  21056544.949    21056532.7154
        49.400          38.8004
 118075459.884 7  92006810.28245  22469009.003    22469000.6374
        44.500          31.7004
 121215663.721 7  94453779.28744  23066557.109    23066545.5784
        43.300          28.7004
 16  1  1  0  0 33.0000000  0  9G06G26G01G16G09G03G23G32G31
 124582868.722 6  97077537.25943  23707329.094    23707324.1864
        37.800          22.9004
 116243639.904 7  90579471.79745  22120416.682    22120409.5474
        45.200          33.8004
 130763004.601 5                  24883401.955
        33.700
 118945106.973 7  92684485.75444  22634484.419    22634476.2874
        42.300          27.2004
 122089874.383 7  95134992.49044  23232913.618    23232906.3654
        42.300          27.6004
 107762879.227 8  83971073.99346  20506592.529    20506584.1044
        50.700          41.9004
 110651380.669 8  86221840.30146  21056237.993    21056225.1724
        49.500          38.9004
 118078520.501 7  92009195.17345  22469592.264    22469583.0184
        44.500          31.8004
 121218882.185 7  94456287.19844  23067168.699    23067158.1054
        43.000          29.0004
 16  1  1  0  0 34.0000000  0  9G06G26G01G16G09G03G23G32G31
 124581927.146 6  97076803.57343  23707149.499    23707145.0604
        37.600          22.9004
 116242519.527 7  90578598.77945  22120203.491    22120196.1214
        45.400          34.2004
 130766519.480 5                  24884070.148
        32.900
 118942099.448 7  92682142.23144  22633912.801    22633903.9664
        42.100          27.5004
 122086957.867 7  95132719.88244  23232358.663    23232351.1764
        42.200          28.2004
 107764119.025 8  83972040.06447  20506828.105    20506819.8564
        50.300          42.0004
 110649767.087 8  86220582.96846  21055930.672    21055918.3794
        49.200          39.1004
 118081581.557 7  92011580.41045  22470174.328    22470165.2004
        44.700          31.2004
 121222100.987 7  94458795.36444  23067781.352    23067770.7004
        42.800          29.1004
 16  1  1  0  0 35.0000000  0  9G06G26G01G16G09G03G23G32G31
 124580986.209 6  97076070.36643  23706970.548    23706965.9334
        37.100          23.9004
 116241399.770 7  90577726.24145  22119990.198    22119983.0054
        45.900          34.0004
 130770034.323 5                  24884737.541
        32.800
 118939092.348 6  92679799.04044  22633340.501    22633331.6084
        41.800          26.8004
 122084041.508 7  95130447.39344  23231803.405    23231796.0364
        42.300          27.9004
 107765359.427 8  83973006.61246  20507064.330    20507055.9054
        50.600          41.7004
 110648153.804 8  86219325.86446  21055623.924    21055611.5734
        49.300          38.6004
 118084642.912 7  92013965.88045  22470756.661    22470747.7094
        44.800          30.9004
 121225319.998 7  94461303.69444  23068393.735    23068383.0244
        42.500          28.9004
 16  1  1  0  0 36.0000000  0  9G06G26G01G16G09G03G23G32G31
 124580046.062 6  97075337.78643  23706791.620    23706787.1814
        37.700          22.9004
 116240280.780 7  90576854.30145  22119776.958    22119770.2924
        45.800          33.3004
 130773549.335 5                  24885408.391
        32.800
 118936085.799 7  92677456.28344  22632768.258    22632759.1894
        42.200          27.1004
 122081125.393 6  95128175.10144  23231248.346    23231241.3284
        41.900          28.1004
 107766600.560 8  83973973.72646  20507300.284    20507292.2704
        50.500          41.7004
 110646540.943 8  86218069.09646  21055317.663    21055304.4324
        49.600          38.9004
 118087704.682 7  92016351.67545  22471339.199    22471330.2464
        45.000          30.6004
 121228539.350 7  94463812.28944  23069006.262    23068995.4344
        42.700          28.2004
 16  1  1  0  0 37.0000000  0  9G06G26G01G16G09G03G23G32G31
 124579106.392 6  97074605.58243  23706612.849    23706608.5864
        38.000          22.6004
 116239162.289 7  90575982.75745  22119563.941    22119557.2164
        46.000          33.0004
 130777064.186 5                  24886076.398
        33.200
 118933079.473 7  92675113.69244  22632196.840    22632187.1264
        42.200          26.8004
 122078209.270 6  95125902.81144  23230693.243    23230686.3424
        41.800          28.3004
 107767842.131 8  83974941.19146  20507537.048    20507528.4474
        50.400          41.8004
 110644928.220 8  86216812.42946  21055010.200    21054997.2044
        49.700          38.7004
 118090766.593 7  92018737.57545  22471922.072    22471913.0034
        45.200          31.0004
 121231758.733 7  94466320.91944  23069619.469    23069608.2314
        42.400          28.6004
 16  1  1  0  0 38.0000000  0  9G06G26G01G16G09G03G23G32G31
 124578167.310 6  97073873.83543  23706433.669    23706429.2884
        38.500          22.5004
 116238044.403 7  90575111.67945  22119351.256    22119344.4734
        46.000          33.5004
 130780578.927 5                  24886745.721
        33.200
 118930073.552 7  92672771.43344  22631623.868    22631615.6194
        42.300          26.8004
 122075293.275 7  95123630.61844  23230138.767    23230131.8074
        42.000          27.4004
 107769084.299 8  83975909.10446  20507773.047    20507765.0324
        50.900          41.8004
 110643315.753 8  86215555.96546  21054703.566    21054690.8624
        49.700          38.8004
 118093828.811 7  92021123.72345  22472504.942    22472495.8144
        45.000          31.5004
 121234978.322 7  94468829.69644  23070232.080    23070221.0184
        42.800          28.7004
 16  1  1  0  0 39.0000000  0  9G06G26G01G16G09G03G23G32G31
 124577228.881 6  97073142.59643  23706256.241    23706250.8644
        38.500          23.0004
 116236927.142 7  90574241.08445  22119138.856    22119132.3064
        45.800          33.3004
 130784093.645 5                  24887414.088
        33.300
 118927068.045 7  92670429.48244  22631052.334    22631043.3814
        42.200          27.2004
 122072377.377 7  95121358.49644  23229583.872    23229576.8544
        42.100          27.5004
 107770327.044 8  83976877.48746  20508009.733    20508001.5434
        50.700          41.7004
 110641703.575 8  86214299.72346  21054396.510    21054383.7484
        49.800          39.2004
 118096891.303 7  92023510.07945  22473087.647    22473078.3444
        45.100          31.1004
 121238198.052 7  94471338.58744  23070845.126    23070833.7714
        42.700          28.0004
 16  1  1  0  0 40.0000000  0  9G06G26G01G16G09G03G23G32G31
 124576291.278 6  97072411.98543  23706077.681    23706072.5974
        38.300          22.2004
 116235810.712 7  90573371.14645  22118926.417    22118919.4584
        45.700          33.7004
 130787608.572 5                  24888082.308
        33.200
 118924063.123 6  92668087.98444  22630480.041    22630471.3234
        41.800          26.8004
 122069461.787 6  95119086.61544  23229029.284    23229021.7384
        41.800          26.5004
 107771570.578 8  83977846.47346  20508246.095    20508237.9054
        50.500          41.8004
 110640091.897 8  86213043.87146  21054089.706    21054076.8274
        49.900          39.2004
 118099954.282 7  92025896.81745  22473670.684    22473661.0294
        44.800          31.5004
 121241418.211 7  94473847.82144  23071457.707    23071446.4694
        43.300          28.8004
 16  1  1  0  0 41.0000000  0  9G06G26G01G16G09G03G23G32G31
 124575354.265 6  97071681.84543  23705899.099    23705894.2504
        37.800          23.0004
 116234694.875 7  90572501.65945  22118714.345    22118707.0934
        45.600          34.0004
 130791123.397 5                  24888752.141
        33.600
 118921058.606 7  92665746.80944  22629909.047    22629899.6264
        42.000          27.0004
 122066546.302 6  95116814.81944  23228474.029    23228467.0704
        41.700          27.8004
 107772814.657 8  83978815.88146  20508482.943    20508475.0464
        50.300          41.8004
 110638480.431 8  86211788.18646  21053782.588    21053770.1784
        49.400          39.2004
 118103017.499 7  92028283.73745  22474253.449    22474243.8524
        44.600          31.8004
 121244638.516 7  94476357.16244  23072071.249    23072059.1324
        43.200          28.9004
 16  1  1  0  0 42.0000000  0  9G06G26G01G16G09G03G23G32G31
 124574417.683 6  97070952.04643  23705721.192    23705716.2264
        38.300          23.5004
 116233579.457 7  90571632.50845  22118501.961    22118494.7084
        45.900          34.1004
 130794638.036 5                  24889421.451
        33.500
 118918054.232 7  92663405.74044  22629337.314    22629327.8934
        42.100          26.5004
 122063630.712 7  95114542.92544  23227919.406    23227912.1544
        42.000          27.6004
 107774059.125 8  83979785.59746  20508720.088    20508711.5464
        50.200          41.6004
 110636869.062 8  86210532.56746  21053475.842    21053463.9594
        49.300          39.2004
 118106080.811 7  92030670.72845  22474836.155    22474826.5004
        44.800          30.9004
 121247858.793 7  94478866.47744  23072683.385    23072671.7364
        43.400          29.1004
 16  1  1  0  0 43.0000000  0  9G06G26G01G16G09G03G23G32G31
 124573481.665 6  97070222.69343  23705543.175    23705538.2084
        38.300          23.6004
 116232464.631 7  90570763.81245  22118289.436    22118282.7114
        45.900          33.9004
 130798152.595 5                  24890090.051
        33.900
 118915050.250 7  92661064.97744  22628765.177    22628756.4014
        42.000          26.7004
 122060715.250 6  95112271.13844  23227364.072    23227357.4644
        41.400          28.1004
 107775304.157 8  83980755.74946  20508957.009    20508948.4094
        50.300          41.7004
 110635257.936 8  86209277.14546  21053169.329    21053157.0954
        48.900          39.3004
 118109144.382 7  92033057.92445  22475419.841    22475410.1864
        45.000          31.3004
 121251079.192 7  94481375.89544  23073296.755    23073284.9304
        43.200          28.9004
 16  1  1  0  0 44.0000000  0  9G06G26G01G16G09G03G23G32G31
 124572546.487 6  97069493.98844  23705365.415    23705360.0384
        38.100          24.9004
 116231350.618 7  90569895.75645  22118078.545    22118070.8824
        45.700          34.0004
 130801667.334 5                  24890759.719
        33.700
 118912046.862 6  92658724.67844  22628193.839    22628184.3014
        41.700          26.7004
 122057800.053 6  95109999.56344  23226809.194    23226803.0554
        41.400          28.4004
 107776549.963 8  83981726.51046  20509194.012    20509185.3524
        50.300          41.8004
 110633647.284 8  86208022.08746  21052863.527    21052850.8244
        49.300          39.4004
 118112208.411 7  92035445.48245  22476002.487    22475993.3014
        44.700          31.0004
 121254299.998 7  94483885.61444  23073909.505    23073897.6224
        43.500          29.2004
 16  1  1  0  0 45.0000000  0  9G06G26G01G16G09G03G23G32G31
 124571611.914 6  97068765.75844  23705187.337    23705182.1944
        38.300          24.7004
 116230237.245 7  90569028.19045  22117865.444    22117858.9544
        45.600          34.0004
 130805182.009 5                  24891429.562
        34.700
 118909043.899 7  92656384.70944  22627622.850    22627613.0194
        42.200          26.1004
 122054884.993 6  95107728.09744  23226254.561    23226248.0704
        41.300          28.0004
 107777796.351 8  83982697.72546  20509431.195    20509422.4184
        50.200          41.8004
 110632036.923 8  86206767.26846  21052556.450    21052543.8644
        49.300          39.4004
 118115272.739 7  92037833.26845  22476586.208    22476576.4934
        44.800          31.0004
 121257521.006 7  94486395.49744  23074522.003    23074510.2374
        43.600          29.5004
 16  1  1  0  0 46.0000000  0  9G06G26G01G16G09G03G23G32G31
 124570677.774 6  97068037.86543  23705009.181    23705004.5664
        38.100          23.5004
 116229124.289 7  90568160.95045  22117653.870    22117646.9694
        45.400          33.7004
 130808696.446 5                  24892098.597
        34.300
 118906041.127 7  92654044.89844  22627051.731    22627041.4894
        42.200          25.8004
 122051969.869 6  95105456.57944  23225699.168    23225693.4394
        41.600          28.6004
 107779043.140 8  83983669.25047  20509668.776    20509660.1764
        50.200          42.0004
 110630426.621 8  86205512.48646  21052250.358    21052237.7134
        49.400          39.3004
 118118337.157 7  92040221.12745  22477168.748    22477159.3854
        45.300          31.3004
 121260741.990 7  94488905.36344  23075135.444    23075123.4444
        43.600          29.1004
 16  1  1  0  0 47.0000000  0  9G06G26G01G16G09G03G23G32G31
 124569744.659 6  97067310.76443  23704831.636    23704827.3144
        38.700          22.5004
 116228012.295 7  90567294.46745  22117442.231    22117435.2724
        45.400          33.7004
 130812211.228 5                  24892766.274
        34.400
 118903039.102 7  92651705.66044  22626480.197    22626470.2494
        42.600          26.4004
 122049055.223 6  95103185.43944  23225144.621    23225138.7754
        41.600          27.7004
 107780290.844 8  83984641.48646  20509905.844    20509897.3604
        50.400          41.8004
 110628816.964 8  86204258.21046  21051944.349    21051931.1184
        49.000          39.3004
 118121402.170 7  92042609.44545  22477752.092    22477743.1984
        45.100          31.2004
 121263963.507 7  94491415.64644  23075747.712    23075736.3564
        43.600          28.9004
 16  1  1  0  0 48.0000000  0  9G06G26G01G16G09G03G23G32G31
 124568811.857 6  97066583.89843  23704654.828    23704649.8614
        38.900          22.3004
 116226900.708 7  90566428.29645  22117231.120    22117223.9264
        45.000          33.9004
 130815725.717 5                  24893435.133
        35.000
 118900037.203 7  92649366.51644  22625909.139    22625899.0154
        42.600          24.9004
 122046140.422 6  95100914.16644  23224590.363    23224584.4004
        41.600          27.7004
 107781538.873 8  83985613.97547  20510143.280    20510135.0894
        50.100          42.0004
 110627207.316 8  86203003.94346  21051638.453    21051624.9884
        49.300          39.9004
 118124467.211 7  92044997.78445  22478335.565    22478326.1444
        44.700          31.6004
 121267184.961 7  94493925.88344  23076361.250    23076349.7194
        43.800          28.7004
 16  1  1  0  0 49.0000000  0  9G06G26G01G16G09G03G23G32G31
 124567879.680 6  97065857.53043  23704477.533    23704472.6254
        38.400          22.2004
 116225789.668 7  90565562.55745  22117020.050    22117012.9734
        45.000          33.4004
 130819240.168 5                  24894104.531
        35.100
 118897035.695 7  92647027.69044  22625338.039    22625328.3244
        43.000          26.2004
 122043225.690 6  95098642.94944  23224035.392    23224029.3714
        41.600          27.9004
 107782787.476 8  83986586.91947  20510381.045    20510372.3864
        50.200          42.0004
 110625597.906 8  86201749.85346  21051331.839    21051319.0194
        49.400          39.8004
 118127532.545 7  92047386.35045  22478919.142    22478909.3114
        44.600          31.8004
 121270406.549 7  94496436.21044  23076974.015    23076962.9534
        43.800          29.4004
 16  1  1  0  0 50.0000000  0  9G06G26G01G16G09G03G23G32G31
 124566948.243 6  97065131.71943  23704300.091    23704294.5974
        39.000          22.3004
 116224679.389 7  90564697.40845  22116808.391    22116801.6084
        44.900          33.9004
 130822754.640 5                  24894772.742
        34.200
 118894034.701 7  92644689.25944  22624766.867    22624756.4494
        42.800          26.7004
 122040311.236 6  95096371.94944  23223481.345    23223474.6784
        41.700          28.0004
 107784036.778 8  83987560.39147  20510618.313    20510610.1234
        50.300          42.2004
 110623988.915 8  86200496.09846  21051025.479    21051013.2444
        49.200          39.7004
 118130598.257 7  92049775.21845  22479502.650    22479492.4674
        45.200          31.7004
 121273628.471 7  94498946.80644  23077587.203    23077575.6714
        43.000          29.2004
 16  1  1  0  0 51.0000000  0  9G06G26G01G16G09G03G23G32G31
 124566017.470 6  97064406.44443  23704122.898    23704117.6394
        38.800          22.3004
 116223569.803 7  90563832.79345  22116596.826    22116589.9844
        45.100          33.8004
 130826269.205 5                  24895442.100
        34.200
 118891034.170 7  92642351.19144  22624196.197    22624185.9564
        42.600          26.4004
 122037396.935 6  95094101.07544  23222926.811    23222920.6724
        41.800          27.7004
 107785286.731 8  83988534.38547  20510856.182    20510847.9334
        50.500          42.1004
 110622380.256 8  86199242.60146  21050719.614    21050707.0864
        49.200          39.3004
 118133664.311 7  92052164.35045  22480086.042    22480076.3874
        44.800          30.7004
 121276850.627 7  94501457.58244  23078200.386    23078188.9144
        42.700          29.4004
 16  1  1  0  0 52.0000000  0  9G06G26G01G16G09G03G23G32G31
 124565087.218 6  97063681.57243  23703945.635    23703940.3764
        38.600          22.5004
 116222460.692 7  90562968.55445  22116385.998    22116379.3904
        45.100          33.9004
 130829783.583 5                  24896110.073
        34.500
 118888033.907 7  92640013.31444  22623625.091    22623614.6734
        42.700          26.8004
 122034482.644 7  95091830.21044  23222371.646    23222365.8004
        42.300          27.6004
 107786537.126 8  83989508.71647  20511094.643    20511086.2184
        50.600          42.0004
 110620771.736 8  86197989.21446  21050413.230    21050401.0544
        49.400          39.2004
 118136730.503 7  92054553.58445  22480669.805    22480659.6804
        44.700          31.3004
 121280072.834 7  94503968.40544  23078813.074    23078802.3044
        42.700          29.3004
 16  1  1  0  0 53.0000000  0  9G06G26G01G16G09G03G23G32G31
 124564157.628 6  97062957.21443  23703769.687    23703763.5484
        38.000          22.5004
 116221352.287 7  90562104.85745  22116175.273    22116168.0214
        44.800          33.9004
 130833298.011 5                  24896778.618
        33.400
 118885034.091 7  92637675.79644  22623054.424    22623043.7144
        42.500          26.1004
 122031568.492 7  95089559.44944  23221817.911    23221811.3614
        42.500          27.8004
 107787788.192 8  83990483.57446  20511332.480    20511324.1144
        50.600          41.7004
 110619163.558 8  86196736.08446  21050107.275    21050094.3964
        49.600          39.6004
 118139797.081 7  92056943.12645  22481252.861    22481244.0844
        44.600          31.0004
 121283295.263 7  94506479.39244  23079426.583    23079415.3454
        43.000          28.5004
 16  1  1  0  0 54.0000000  0  9G06G26G01G16G09G03G23G32G31
 124563228.706 6  97062233.38743  23703593.143    23703587.0634
        38.400          22.9004
 116220244.560 7  90561241.69845  22115964.646    22115957.2764
        44.700          33.6004
 130836812.407 5                  24897446.827
        33.200
 118882034.739 7  92635338.64744  22622482.889    22622473.1164
        42.500          26.7004
 122028654.570 6  95087288.86444  23221264.346    23221256.6834
        41.900          27.6004
 107789039.851 8  83991458.89546  20511570.779    20511562.2374
        50.700          41.8004
 110617555.699 8  86195483.20346  21049801.458    21049788.9894
        49.600          39.0004
 118142863.943 7  92059332.88945  22481836.327    22481826.9054
        44.400          31.3004
 121286517.960 7  94508990.59744  23080040.345    23080028.5804
        43.700          29.0004
 16  1  1  0  0 55.0000000  0  9G06G26G01G16G09G03G23G32G31
 124562300.320 6  97061509.96043  23703415.953    23703410.2834
        38.100          22.5004
 116219137.354 7  90560378.94345  22115753.771    22115746.4604
        45.000          33.5004
 130840326.703 5                  24898115.726
        33.500
 118879035.663 7  92633001.70844  22621912.573    22621902.3904
        42.500          27.8004
 122025740.618 6  95085018.25244  23220708.994    23220702.3284
        41.700          28.8004
 107790292.031 8  83992434.62146  20511808.535    20511800.2864
        50.400          41.7004
 110615948.022 8  86194230.46946  21049495.391    21049482.8054
        49.500          39.0004
 118145931.029 7  92061722.82745  22482419.659    22482410.4134
        44.500          31.6004
 121289740.710 7  94511501.83144  23080653.675    23080641.7344
        43.600          29.1004
 16  1  1  0  0 56.0000000  0  9G06G26G01G16G09G03G23G32G31
 124561372.752 6  97060787.18843  23703238.934    23703233.7334
        38.600          22.5004
 116218030.919 7  90559516.78845  22115543.122    22115536.5144
        45.200          34.2004
 130843841.140 5                  24898783.141
        32.900
 118876037.177 7  92630665.22444  22621342.008    22621332.0014
        42.500          26.9004
 122022826.960 6  95082747.86944  23220153.444    23220147.5404
        41.400          27.9004
 107791544.962 8  83993410.93046  20512047.273    20512039.1414
        49.800          41.8004
 110614340.779 8  86192978.07246  21049189.722    21049176.9014
        49.400          38.9004
 118148998.530 7  92064113.08645  22483003.444    22482994.3744
        45.000          31.1004
 121292963.843 7  94514013.37544  23081266.338    23081254.9254
        43.700          29.8004
 16  1  1  0  0 57.0000000  0  9G06G26G01G16G09G03G23G32G31
 124560445.669 6  97060064.78843  23703063.365    23703057.1094
        38.100          22.5004
 116216925.040 7  90558655.06445  22115332.849    22115326.0064
        45.300          33.6004
 130847355.380 5                  24899453.700
        33.600
 118873038.993 7  92628328.98044  22620771.176    22620761.3444
        42.800          27.3004
 122019913.323 6  95080477.51244  23219599.417    23219593.2204
        41.100          28.1004
 107792798.359 8  83994387.59746  20512285.580    20512277.5074
        49.900          41.9004
 110612733.737 8  86191725.83346  21048884.264    21048871.0334
        49.200          39.1004
 118152066.231 7  92066503.50445  22483587.596    22483578.2924
        44.900          31.2004
 121296187.025 7  94516524.95244  23081880.526    23081868.5844
        43.500          29.4004
 16  1  1  0  0 58.0000000  0  9G06G26G01G16G09G03G23G32G31
 124559519.325 6  97059342.96643  23702886.470    23702880.9764
        38.300          22.8004
 116215819.849 7  90557793.87245  22115122.411    22115115.5694
        45.300          33.6004
 130850869.779 5                  24900122.740
        33.200
 118870041.290 6  92625993.11544  22620201.151    22620190.8514
        41.800          27.8004
 122016999.893 6  95078207.31844  23219044.362    23219039.0434
        40.900          28.7004
 107794052.443 8  83995364.81446  20512524.410    20512515.8094
        50.200          41.7004
 110611127.042 8  86190473.87246  21048578.004    21048565.7114
        49.400          39.2004
 118155134.292 7  92068894.19445  22484171.428    22484161.9494
        45.100          31.1004
 121299410.480 7  94519036.74144  23082494.054    23082481.8784
        43.600          28.8004
 16  1  1  0  0 59.0000000  0  9G06G26G01G16G09G03G23G32G31
 124558593.518 6  97058621.55343  23702710.040    23702705.1324
        38.600          22.9004
 116214715.230 7  90556933.13945  22114912.010    22114905.1104
        45.600          33.4004
 130854384.010 5                  24900790.970
        33.300
 118867043.925 7  92623657.51044  22619630.532    22619620.5244
        42.200          27.1004
 122014086.524 6  95075937.15844  23218489.929    23218484.4354
        41.000          27.6004
 107795307.054 8  83996342.42946  20512763.034    20512755.1374
        50.700          41.7004
 110609520.553 8  86189222.06246  21048273.121    21048260.0084
        50.000          39.0004
 118158202.590 7  92071285.07245  22484754.444    22484745.9604
        44.800          31.1004
 121302634.098 7  94521548.65344  23083107.269    23083094.9184
        43.500          29.1004
 16  1  1  0  1  0.0000000  0  9G06G26G01G16G09G03G23G32G31
 124557668.454 6  97057900.72643  23702534.875    23702528.8544
        38.800          22.8004
 116213611.353 7  90556072.97745  22114702.118    22114695.2764
        45.500          33.5004
 130857898.341 5                  24901459.557
        33.900
 118864047.084 7  92621322.32444  22619059.859    22619050.2624
        42.000          27.7004
 122011173.373 6  95073667.18344  23217936.208    23217929.9524
        41.200          28.2004
 107796562.348 8  83997320.57646  20513001.743    20512993.6704
        50.500          41.9004
 110607914.466 8  86187970.56446  21047966.549    21047953.6114
        50.100          39.2004
 118161271.263 7  92073676.24645  22485338.533    22485329.8154
        44.500          31.2004
 121305857.965 7  94524060.76444  23083720.498    23083708.6744
        43.900          29.3004
 16  1  1  0  1  1.0000000  0  9G06G26G01G16G09G03G23G32G31
 124556744.013 6  97057180.38443  23702359.272    23702353.1334
        38.400          22.9004
 116212508.057 7  90555213.26345  22114492.419    22114485.3434
        45.400          33.6004
 130861412.601 5                  24902128.818
        33.400
 118861050.612 7  92618987.41444  22618489.831    22618480.2924
        42.400          27.8004
 122008260.343 6  95071397.30044  23217381.647    23217375.4504
        41.300          28.8004
 107797818.211 8  83998299.17446  20513241.012    20513232.7054
        50.100          41.9004
 110606308.640 8  86186719.27746  21047660.873    21047648.7564
        49.700          39.3004
 118164340.184 7  92076067.61145  22485922.713    22485914.0544
        44.600          31.2004
 121309082.011 7  94526573.01644  23084334.099    23084321.9824
        43.900          28.8004
 16  1  1  0  1  2.0000000  0  9G06G26G01G16G09G03G23G32G31
 124555819.999 6  97056460.37043  23702182.485    23702177.1084
        38.600          22.8004
 116211405.247 7  90554353.93045  22114281.759    22114275.2104
        45.300          34.0004
 130864926.758 5                  24902797.470
        33.400
 118858054.400 7  92616652.70544  22617919.254    22617910.1264
        42.300          26.8004
 122005347.239 6  95069127.35244  23216827.664    23216821.5254
        41.500          28.3004
 107799074.485 8  83999278.09146  20513479.962    20513471.8304
        50.000          41.9004
 110604702.905 8  86185468.05846  21047355.248    21047342.8964
        49.400          39.3004
 118167409.252 7  92078459.09545  22486506.817    22486497.9234
        45.000          31.4004
 121312306.075 7  94529085.27744  23084947.416    23084935.6504
        43.700          29.5004
 16  1  1  0  1  3.0000000  0  9G06G26G01G16G09G03G23G32G31
 124554896.617 6  97055740.86643  23702006.877    23702001.6184
        38.600          22.8004
 116210303.029 7  90553495.06645  22114072.785    22114065.8254
        45.300          33.6004
 130868440.701 5                  24903466.932
        33.400
 118855058.537 7  92614318.27444  22617349.090    22617340.0794
        42.600          26.7004
 122002434.260 7  95066857.50444  23216272.961    23216266.8224
        42.000          27.8004
 107800331.348 8  84000257.46247  20513719.231    20513710.9234
        49.900          42.0004
 110603097.454 8  86184217.05546  21047049.299    21047037.2994
        49.100          39.4004
 118170478.564 7  92080850.76045  22487090.628    22487082.0864
        44.900          31.5004
 121315530.281 7  94531597.64044  23085560.970    23085549.2044
        43.400          28.8004
 16  1  1  0  1  4.0000000  0  9G06G26G01G16G09G03G23G32G31
 124553974.285 6  97055022.16143  23701831.367    23701825.6974
        38.800          22.8004
 116209201.846 7  90552636.99445  22113862.802    22113855.6674
        45.000          34.0004
 130871955.110 5                  24904134.764
        33.000
 118852063.503 7  92611984.48644  22616779.276    22616769.9724
        42.300          27.7004
 121999521.787 6  95064588.04444  23215718.951    23215712.6364
        41.800          28.5004
