     2.11           OBSERVATION DATA    M (MIXED)           RINEX VERSION / TYPE
teqc  2011Oct11                         20160218 00:17:13UTCPGM / RUN BY / DATE
Linux 2.4.21-27.ELsmp|Opteron|gcc|Linux x86_64|=+           COMMENT
teqc  2015Jun23                         20160218 00:17:12UTCCOMMENT
Linux 2.4.21-27.ELsmp|Opteron|gcc -static|Linux x86_64|=+   COMMENT
BIT 2 OF LLI FLAGS DATA COLLECTED UNDER A/S CONDITION       COMMENT
VILL                                                        MARKER NAME
13406M001                                                   MARKER NUMBER
AUTOMATIC           ESA/ESOC                                OBSERVER / AGENCY
3001316             SEPT POLARX4        2.9.0               REC # / TYPE / VERS
5166                SEPCHOKE_MC     NONE                    ANT # / TYPE
  4849833.7962  -335049.1807  4116014.8247                  APPROX POSITION XYZ
        0.0937        0.0000        0.0000                  ANTENNA: DELTA H/E/N
     1     1                                                WAVELENGTH FACT L1/2
    17    C1    P1    L1    S1    C2    P2    L2    S2    C5# / TYPES OF OBSERV
          L5    S5    C7    L7    S7    C8    L8    S8      # / TYPES OF OBSERV
 SNR is mapped to RINEX snr flag value [0-9]                COMMENT
  L1 & L2: min(max(int(snr_dBHz/6), 0), 9)                  COMMENT
teqc_SBF.bin edited: all SBAS satellites excluded           COMMENT
teqc_SBF.bin edited: all Galileo satellites excluded        COMMENT
teqc_SBF.bin edited: all Compass satellites excluded        COMMENT
teqc_SBF.bin edited: all QZSS satellites excluded           COMMENT
    17                                                      LEAP SECONDS
  2016     2    18     0     0    0.0000000     GPS         TIME OF FIRST OBS
                                                            END OF HEADER
 16  2 18  0  0  0.0000000  0 18G26G21G27G10G16R14G31G18G20G08R15R02
                                R17G29R24R01R18G04
  20236515.035    20236514.803   106343636.955 8        51.500    20236516.747
  20236517.083    82865188.982 8        48.750    20236516.600    79412481.898 9
        55.000

  21516680.141    21516679.386   113071040.393 8        48.000
  21516678.039    88107334.10546        39.750


  21853827.626    21853827.260   114842671.168 7        47.000    21853828.445
  21853828.771    89487801.223 7        44.500    21853829.487    85759146.484 8
        51.000

  23871609.435    23871609.368   125446203.580 6        40.500    23871610.249
  23871609.914    97750269.765 6        38.250    23871609.632    93677339.537 7
        43.000

  20471977.512    20471976.886   107580990.498 8        50.500
  20471975.509    83829340.16347        43.750


  21640321.858                   115355119.258 6        39.500    21640329.070
  21640328.784    89720669.500 6        37.000


  23866459.113    23866459.135   125419105.574 6        38.250    23866458.035
  23866458.191    97729162.364 5        35.250


  22756509.583    22756508.899   119586288.680 7        43.500
  22756508.917    93184134.65744        28.500


  23586017.961    23586017.094   123945382.014 6        39.250
  23586016.874    96580816.73943        20.250


  24494518.943    24494518.599   128719571.260 6        37.250    24494520.759
  24494520.759   100300990.459 5        33.000    24494521.331    96121768.200 7
        42.000

  19509552.915                   104253145.642 8        50.250    19509557.015
  19509556.465    81085806.609 8        48.250


  23521565.075                   125515576.136 6        40.500    23521569.211
  23521570.816    97623248.220 6        38.750


  20158036.652                   107869764.777 8        49.250    20158038.324
  20158038.382    83898710.316 5        33.500


  24473413.360    24473413.280   128608748.581 6        37.000    24473414.009
  24473413.508   100214657.87442        17.500


  22365930.462                   119600836.129 6        38.500    22365932.407
  22365932.063    93022798.436 5        31.500


  22844481.214                   122116840.395 6        41.750    22844486.334
  22844487.729    94979793.727 5        34.250


  20981924.639                   112003022.693 8        49.250    20981927.747
  20981928.127    87113483.646 7        45.750


  20539762.090    20539762.010   107937201.975 8        50.000
  20539760.686    84106923.39447        42.750


 16  2 18  0  0  1.0000000  0 18G26G21G27G10G16R14G31G18G20G08R15R02
                                R17G29R24R01R18G04
  20236626.074    20236625.842   106344220.582 8        51.500    20236627.795
  20236628.144    82865643.762 8        48.750    20236627.657    79412917.723 9
        55.000

  21516962.591    21516961.836   113072525.142 8        48.000
  21516960.574    88108491.05146        39.750


  21853441.538    21853441.172   114840641.952 7        47.000    21853442.316
  21853442.597    89486220.007 7        44.500    21853443.362    85757631.161 8
        51.000

  23870990.361    23870990.294   125442948.000 6        40.500    23870990.898
  23870990.379    97747732.935 6        38.250    23870990.039    93674908.428 7
        43.000

  20471743.329    20471742.708   107579759.638 8        50.500
  20471741.285    83828381.05147        43.750


  21641116.823                   115359355.981 6        39.500    21641123.463
  21641123.575    89723964.721 6        37.500


  23867120.940    23867120.957   125422582.170 6        38.250    23867119.737
  23867119.746    97731871.381 5        35.500


  22756190.269    22756189.585   119584611.863 7        43.500
  22756189.827    93182828.04644        28.500


  23586254.555    23586253.692   123946624.402 6        39.250
  23586253.316    96581784.83543        20.500


  24493998.133    24493997.794   128716833.773 6        37.250    24493999.891
  24493999.841   100298857.344 5        33.000    24494000.396    96119723.962 7
        42.000

  19509840.364                   104254681.902 8        50.000    19509844.679
  19509843.986    81087001.472 8        48.250


  23520908.323                   125512070.076 6        40.750    23520912.951
  23520913.752    97620521.285 6        39.000


  20158413.064                   107871779.018 8        49.000    20158414.495
  20158414.920    83900277.012 5        33.250


  24473952.486    24473952.410   128611579.907 6        37.500    24473952.911
  24473952.303   100216864.10442        17.500


  22366520.220                   119603987.524 6        38.500    22366521.427
  22366521.154    93025249.560 5        31.250


  22844271.755                   122115717.373 7        42.000    22844276.141
  22844278.001    94978920.269 5        33.500


  20981536.534                   112000951.015 8        49.000    20981539.659
  20981539.977    87111872.333 7        45.750


  20540035.910    20540035.830   107938641.156 8        50.000
  20540034.569    84108044.83347        42.750


 16  2 18  0  0  2.0000000  0 18G26G21G27G10G16R14G31G18G20G08R15R02
                                R17G29R24R01R18G04
  20236737.238    20236737.006   106344804.747 8        51.500    20236738.978
  20236739.300    82866098.956 8        48.750    20236738.830    79413353.948 9
        55.000

  21517245.170    21517244.410   113074010.268 8        48.000
  21517243.189    88109648.29146        39.750


  21853055.435    21853055.069   114838612.940 7        47.250    21853056.222
  21853056.468    89484638.962 7        44.500    21853057.224    85756115.996 8
        50.750

  23870370.711    23870370.640   125439692.468 6        40.500    23870371.332
  23870370.867    97745196.186 6        38.500    23870370.469    93672477.360 7
        43.000

  20471509.271    20471508.645   107578529.220 8        50.500
  20471507.147    83827422.28247        43.750


  21641911.801                   115363593.032 6        39.750    21641918.732
  21641918.473    89727260.230 6        36.750


  23867782.744    23867782.757   125426058.770 6        38.250    23867781.170
  23867781.264    97734580.442 5        35.250


  22755871.054    22755870.375   119582935.427 7        43.250
  22755870.808    93181521.73244        28.500


  23586491.215    23586490.352   123947867.404 6        39.500
  23586489.905    96582753.40643        20.750


  24493477.051    24493476.707   128714096.352 6        37.000    24493479.577
  24493478.947   100296724.298 5        32.500    24493479.380    96117679.791 7
        42.000

  19510127.894                   104256219.020 8        50.000    19510132.254
  19510131.690    81088197.008 8        48.250


  23520251.889                   125508564.170 6        40.750    23520256.446
  23520256.750    97617794.479 6        38.500


  20158789.485                   107873793.533 8        49.000    20158790.478
  20158791.104    83901843.825 5        33.500


  24474491.370    24474491.303   128614411.224 6        37.500    24474491.942
  24474491.088   100219070.31942        17.250


  22367109.897                   119607138.946 6        38.500    22367110.183
  22367110.304    93027700.618 5        31.750


  22844061.919                   122114595.102 7        42.250    22844066.208
  22844068.086    94978047.404 5        34.500


  20981148.477                   111998879.698 8        49.000    20981151.697
  20981151.965    87110261.313 7        45.750


  20540309.864    20540309.784   107940080.844 8        50.000
  20540308.540    84109166.66647        42.750


 16  2 18  0  0  3.0000000  0 18G26G21G27G10G16R14G31G18G20G08R15R02
                                R17G29R24R01R18G04
  20236848.524    20236848.292   106345389.449 8        51.500    20236850.218
  20236850.558    82866554.563 8        48.750    20236850.098    79413790.578 9
        54.750

  21517527.902    21517527.147   113075495.788 8        48.000
  21517525.881    88110805.84046        39.750


  21852669.481    21852669.115   114836584.133 7        47.000    21852670.178
  21852670.384    89483058.072 7        44.500    21852671.162    85754600.977 8
        50.750

  23869751.279    23869751.203   125436437.046 6        40.750    23869751.892
  23869751.404    97742659.494 6        38.500    23869750.930    93670046.362 7
        43.000

  20471275.302    20471274.681   107577299.248 8        50.500
  20471273.089    83826463.86347        43.750


  21642706.981                   115367830.448 6        39.750    21642712.875
  21642713.290    89730555.991 6        37.250


  23868444.321    23868444.329   125429535.469 6        38.000    23868442.344
  23868442.823    97737289.537 5        35.000


  22755551.914    22755551.235   119581259.386 7        43.250
  22755551.851    93180215.72444        28.500


  23586727.929    23586727.066   123949110.999 6        39.500
  23586726.637    96583722.43643        20.750


  24492956.116    24492955.790   128711358.998 6        37.000    24492958.298
  24492958.029   100294591.292 5        33.000    24492958.508    96115635.669 6
        41.750

  19510415.576                   104257757.002 8        50.000    19510419.998
  19510419.471    81089393.226 8        48.250


  23519594.994                   125505058.447 6        41.000    23519599.524
  23519599.801    97615067.792 6        38.250


  20159165.933                   107875808.319 8        49.000    20159167.655
  20159167.601    83903410.903 5        32.750


  24475030.527    24475030.465   128617242.541 6        37.500    24475030.429
  24475029.883   100221276.55142        17.250


  22367698.555                   119610290.417 6        38.250    22367700.156
  22367699.874    93030151.811 5        32.000


  22843852.307                   122113473.604 7        42.250    22843857.401
  22843858.322    94977175.136 5        33.750


  20980760.408                   111996808.762 8        49.000    20980764.115
  20980764.003    87108650.585 7        45.750


  20540583.849    20540583.769   107941521.031 8        50.000
  20540582.611    84110288.88947        42.750


 16  2 18  0  0  4.0000000  0 18G26G21G27G10G16R14G31G18G20G08R15R02
                                R17G29R24R01R18G04
  20236959.952    20236959.720   106345974.688 8        51.750    20236961.548
  20236961.924    82867010.593 8        48.750    20236961.468    79414227.604 9
        54.750

  21517810.679    21517809.924   113076981.682 8        48.000
  21517808.635    88111963.67846        39.750


  21852283.557    21852283.191   114834555.533 7        47.250    21852284.291
  21852284.349    89481477.337 7        44.500    21852285.131    85753086.106 8
        50.750

  23869131.772    23869131.692   125433181.656 6        40.500    23869132.112
  23869131.964    97740122.842 6        38.250    23869131.356    93667615.387 7
        43.000

  20471041.315    20471040.689   107576069.718 8        50.500
  20471039.115    83825505.78847        43.750


  21643501.937                   115372068.212 6        39.750    21643507.978
  21643508.390    89733852.003 6        37.500


  23869105.383    23869105.387   125433012.223 6        38.250    23869103.205
  23869104.422    97739998.674 5        35.250


  22755233.074    22755232.395   119579583.727 7        43.000
  22755233.007    93178910.02044        28.500


  23586964.823    23586963.965   123950355.168 6        39.500
  23586963.419    96584691.91743        20.750


  24492434.930    24492434.613   128708621.723 6        37.000    24492436.826
  24492437.112   100292458.362 5        32.500    24492437.694    96113591.594 6
        41.750

  19510703.526                   104259295.845 8        50.000    19510708.065
  19510707.488    81090590.096 8        48.250


  23518938.435                   125501552.905 6        40.750    23518942.482
  23518942.669    97612341.260 6        38.500


  20159542.421                   107877823.384 8        49.000    20159544.076
  20159544.206    83904978.157 5        34.000


  24475569.434    24475569.372   128620073.873 6        37.750    24475570.082
  24475568.647   100223482.78442        17.000


  22368287.991                   119613441.878 6        38.750    22368290.683
  22368289.641    93032602.952 5        31.250


  22843642.722                   122112352.857 7        42.250    22843648.205
  22843648.616    94976303.429 5        34.500


  20980372.579                   111994738.181 8        49.000    20980375.911
  20980376.058    87107040.128 7        45.500


  20540857.955    20540857.875   107942961.715 8        50.000
  20540856.770    84111411.50147        42.750


 16  2 18  0  0  5.0000000  0 18G26G21G27G10G16R14G31G18G20G08R15R02
                                R17G29R24R01R18G04
  20237071.474    20237071.242   106346560.462 8        51.750    20237072.919
  20237073.388    82867467.035 8        49.000    20237072.914    79414665.029 9
        54.750

  21518093.451    21518092.696   113078467.954 8        48.000
  21518091.470    88113121.81346        39.750


  21851897.522    21851897.156   114832527.142 7        47.250    21851898.372
  21851898.340    89479896.777 7        44.750    21851899.154    85751571.395 8
        50.750

  23868512.188    23868512.108   125429926.363 6        40.750    23868512.515
  23868512.528    97737586.232 6        38.250    23868511.839    93665184.497 7
        43.000

  20470807.499    20470806.873   107574840.631 8        50.250
  20470805.223    83824548.05847        43.750


  21644296.544                   115376306.295 6        39.750    21644303.623
  21644303.422    89737148.309 6        37.250


  23869767.027    23869767.027   125436489.001 6        38.250    23869765.077
  23869766.034    97742707.869 5        35.000


  22754914.256    22754913.577   119577908.467 7        43.250
  22754914.211    93177604.62344        28.500


  23587201.599    23587200.750   123951599.951 6        39.250
  23587200.343    96585661.87643        20.750


  24491913.718    24491913.405   128705884.485 6        37.000    24491916.016
  24491916.177   100290325.448 5        32.500    24491916.839    96111547.562 6
        41.750

  19510991.592                   104260835.549 8        50.000    19510996.346
  19510995.630    81091787.645 8        48.250


  23518281.321                   125498047.551 6        40.750    23518285.484
  23518285.779    97609614.857 6        38.000


  20159918.995                   107879838.725 8        49.000    20159922.371
  20159920.747    83906545.670 5        33.500


  24476107.969    24476107.907   128622905.204 6        37.500    24476108.564
  24476107.419   100225689.01842        17.250


  22368877.503                   119616593.364 6        38.750    22368880.557
  22368878.880    93035054.089 5        30.750


  22843433.536                   122111232.883 7        42.500    22843437.851
  22843439.045    94975432.353 5        34.000


  20979984.697                   111992667.979 8        49.000    20979988.136
  20979988.239    87105429.976 7        45.500


  20541132.294    20541132.214   107944402.910 8        50.000
  20541131.024    84112534.50847        42.750


 16  2 18  0  0  6.0000000  0 18G26G21G27G10G16R14G31G18G20G08R15R02
                                R17G29R24R01R18G04
  20237183.046    20237182.814   106347146.758 8        51.750    20237184.669
  20237184.955    82867923.892 8        49.000    20237184.481    79415102.851 9
        55.000

  21518376.294    21518375.539   113079954.604 8        48.000
  21518374.371    88114280.24446        40.000


  21851511.608    21851511.242   114830498.954 7        47.250    21851512.435
  21851512.386    89478316.380 7        44.750    21851513.222    85750056.846 8
        50.750

  23867892.918    23867892.834   125426671.119 6        41.000    23867893.137
  23867893.101    97735049.703 6        38.250    23867892.390    93662753.636 7
        43.000

  20470573.669    20470573.048   107573611.981 8        50.250
  20470571.410    83823590.66947        43.750


  21645091.518                   115380544.735 6        39.500    21645098.588
  21645098.387    89740444.873 6        37.000


  23870428.411    23870428.407   125439965.835 6        38.250    23870426.913
  23870427.646    97745417.079 5        35.250


  22754595.559    22754594.884   119576233.584 7        43.250
  22754595.483    93176299.52444        28.750


  23587438.515    23587437.670   123952845.322 6        39.500
  23587437.361    96586632.29843        21.000


  24491392.787    24491392.470   128703147.355 6        37.000    24491395.309
  24491395.287   100288192.620 5        32.500    24491396.020    96109503.575 6
        41.750

  19511279.918                   104262376.117 8        50.000    19511284.671
  19511283.965    81092985.865 8        48.500


  23517624.131                   125494542.344 6        40.750    23517629.162
  23517628.960    97606888.594 6        38.750


  20160295.613                   107881854.329 8        49.000    20160299.454
  20160297.169    83908113.328 5        33.750


  24476646.777    24476646.710   128625736.545 6        37.750    24476647.041
  24476646.182   100227895.26342        17.250


  22369467.350                   119619744.871 6        39.000    22369469.939
  22369468.294    93037505.257 5        32.250


  22843224.165                   122110113.659 7        42.500    22843228.981
  22843229.580    94974561.805 5        34.250


  20979596.869                   111990598.127 8        49.000    20979600.370
  20979600.536    87103820.097 7        45.500


  20541406.664    20541406.580   107945844.600 8        50.000
  20541405.376    84113657.90347        43.000


 16  2 18  0  0  7.0000000  0 18G26G21G27G10G16R14G31G18G20G08R15R02
                                R17G29R24R01R18G04
  20237294.814    20237294.582   106347733.597 8        51.750    20237296.361
  20237296.625    82868381.170 8        49.000    20237296.147    79415541.073 9
        55.000

  21518659.316    21518658.561   113081441.627 8        48.000
  21518657.336    88115438.96246        40.000


  21851125.648    21851125.277   114828470.972 7        47.250    21851126.668
  21851126.453    89476736.121 7        44.750    21851127.312    85748542.442 8
        51.000

  23867273.562    23867273.478   125423415.979 6        40.750    23867273.437
  23867273.647    97732513.211 6        38.000    23867272.927    93660322.841 7
        43.000

  20470339.897    20470339.271   107572383.782 8        50.250
  20470337.692    83822633.63147        44.000


  21645886.470                   115384783.512 6        39.750    21645893.580
  21645893.428    89743741.698 6        37.500


  23871089.876    23871089.868   125443442.717 6        38.500    23871088.820
  23871089.299    97748126.340 5        35.250


  22754276.992    22754276.317   119574559.075 7        43.250
  22754276.826    93174994.71544        28.750


  23587675.855    23587675.015   123954091.271 6        39.750
  23587674.474    96587603.18043        21.000


  24490871.946    24490871.629   128700410.256 6        37.000    24490874.423
  24490874.379   100286059.824 5        32.500    24490875.228    96107459.659 6
        41.750

  19511568.414                   104263917.547 8        50.000    19511573.015
  19511572.447    81094184.756 8        48.250


  23516967.384                   125491037.287 6        41.000    23516972.710
  23516972.021    97604162.448 6        38.750


  20160672.342                   107883870.200 8        49.000    20160675.852
  20160674.363    83909681.240 5        33.500


  24477185.782    24477185.724   128628567.865 6        37.500    24477185.603
  24477184.986   100230101.48042        17.000


  22370056.643                   119622896.400 6        39.000    22370058.776
  22370057.649    93039956.417 5        30.750


  22843014.849                   122108995.203 7        42.250    22843019.834
  22843019.960    94973691.892 5        34.000


  20979209.242                   111988528.641 8        49.000    20979212.461
  20979212.842    87102210.501 7        45.500


  20541681.078    20541680.998   107947286.788 8        50.250
  20541679.826    84114781.68647        43.000


 16  2 18  0  0  8.0000000  0 18G26G21G27G10G16R14G31G18G20G08R15R02
                                R17G29R24R01R18G04
  20237406.631    20237406.399   106348320.969 8        51.750    20237408.156
  20237408.393    82868838.864 8        49.000    20237407.919    79415979.696 9
        54.750

  21518942.406    21518941.651   113082929.036 8        48.000
  21518940.376    88116597.98146        40.000


  21850739.810    21850739.444   114826443.203 7        47.250    21850740.736
  21850740.575    89475156.046 7        45.000    21850741.460    85747028.198 8
        50.750

  23866654.269    23866654.180   125420160.869 6        41.000    23866653.898
  23866654.211    97729976.786 6        38.000    23866653.469    93657892.096 7
        43.250

  20470106.196    20470105.570   107571156.019 8        50.250
  20470104.054    83821676.93247        44.000


  21646682.410                   115389022.627 6        39.750    21646689.368
  21646688.822    89747038.766 6        37.000


  23871751.497    23871751.484   125446919.675 6        38.500    23871750.156
  23871750.934    97750835.652 5        35.250


  22753958.357    22753957.682   119572884.949 7        43.250
  22753958.250    93173690.20144        29.000


  23587913.290    23587912.445   123955337.829 6        39.750
  23587911.675    96588574.51943        21.000


  24490351.194    24490350.886   128697673.244 6        37.000    24490353.220
  24490353.524   100283927.056 5        32.250    24490354.374    96105415.772 6
        41.750

  19511857.017                   104265459.841 8        50.000    19511861.716
  19511861.081    81095384.313 8        48.500


  23516310.274                   125487532.409 6        40.750    23516316.003
  23516315.377    97601436.427 6        38.500


  20161049.130                   107885886.336 8        49.000    20161052.622
  20161050.686    83911249.360 5        33.250


  24477724.291    24477724.233   128631399.215 6        37.750    24477723.262
  24477723.749   100232307.72442        17.000


  22370645.766                   119626047.959 6        39.000    22370647.313
  22370647.009    93042407.653 5        31.500


  22842805.684                   122107877.482 7        42.250    22842810.214
  22842811.077    94972822.582 5        34.000


  20978821.762                   111986459.520 8        49.000    20978824.745
  20978825.241    87100601.180 7        45.500


  20541955.631    20541955.551   107948729.474 8        50.250
  20541954.361    84115905.85847        43.000


 16  2 18  0  0  9.0000000  0 18G26G21G27G10G16R14G31G18G20G08R15R02
                                R17G29R24R01R18G04
  20237518.480    20237518.248   106348908.872 8        51.750    20237520.063
  20237520.260    82869296.965 8        49.000    20237519.804    79416418.714 9
        54.750

  21519225.540    21519224.785   113084416.815 8        48.000
  21519223.492    88117757.28946        40.000


  21850353.922    21850353.551   114824415.631 7        47.250    21850354.906
  21850354.732    89473576.117 7        45.000    21850355.631    85745514.107 8
        50.750

  23866034.909    23866034.816   125416905.860 6        41.000    23866034.511
  23866034.802    97727440.406 6        37.750    23866033.970    93655461.404 7
        43.000

  20469872.505    20469871.884   107569928.698 8        50.250
  20469870.502    83820720.57947        44.000


  21647477.983                   115393262.111 6        40.000    21647484.270
  21647484.230    89750336.160 6        37.000


  23872413.311    23872413.298   125450396.658 6        38.750    23872411.978
  23872412.640    97753544.987 5        35.750


  22753640.023    22753639.348   119571211.226 7        43.500
  22753639.768    93172386.00244        29.000


  23588150.706    23588149.857   123956584.967 6        39.750
  23588149.025    96589546.31643        21.000


  24489830.335    24489830.036   128694936.286 6        37.000    24489832.799
  24489832.692   100281794.380 5        32.250    24489833.523    96103371.959 6
        41.750

  19512145.736                   104267002.999 8        50.000    19512150.534
  19512149.917    81096584.550 8        48.250


  23515652.910                   125484027.730 6        40.750    23515658.907
  23515658.567    97598710.554 6        38.750


  20161426.030                   107887902.743 8        49.000    20161428.641
  20161427.465    83912817.675 5        32.500


  24478263.117    24478263.059   128634230.553 6        37.750    24478262.415
  24478262.513   100234513.95642        16.750


  22371235.058                   119629199.522 6        39.000    22371237.652
  22371236.391    93044858.882 5        31.000


  22842596.300                   122106760.526 7        42.000    22842600.919
  22842602.198    94971953.828 5        34.500


  20978434.274                   111984390.770 8        49.000    20978436.935
  20978437.704    87098992.158 7        45.500


  20542230.229    20542230.145   107950172.669 8        50.250
  20542228.999    84117030.42747        43.000


 16  2 18  0  0 10.0000000  0 18G26G21G27G10G16R14G31G18G20G08R15R02
                                R17G29R24R01R18G04
  20237630.441    20237630.209   106349497.312 8        51.750    20237632.028
  20237632.234    82869755.485 8        49.000    20237631.782    79416858.133 9
        55.000

  21519508.795    21519508.040   113085904.974 8        48.000
  21519506.684    88118916.89346        40.000


  21849968.071    21849967.700   114822388.263 7        47.000    21849968.974
  21849968.929    89471996.350 7        45.000    21849969.837    85744000.166 8
        51.000

  23865415.500    23865415.398   125413650.914 6        41.000    23865415.142
  23865415.361    97724904.088 6        37.750    23865414.498    93653030.762 7
        43.000

  20469639.073    20469638.447   107568701.819 8        50.250
  20469637.025    83819764.56847        44.000


  21648273.458                   115397501.924 6        40.250    21648279.034
  21648279.606    89753633.781 6        37.000


  23873075.343    23873075.330   125453873.706 6        38.500    23873074.136
  23873074.310    97756254.377 6        36.000


  22753321.715    22753321.040   119569537.889 7        43.500
  22753321.317    93171082.10844        28.750


  23588388.194    23588387.345   123957832.698 6        40.000
  23588386.494    96590518.57743        21.000


  24489309.525    24489309.226   128692199.392 6        36.750    24489311.721
  24489311.904   100279661.737 5        32.250    24489312.740    96101328.168 7
        42.000

  19512434.679                   104268547.020 8        50.000    19512439.432
  19512438.833    81097785.449 8        48.500


  23514996.592                   125480523.228 6        41.000    23515002.101
  23515001.945    97595984.842 6        38.500


  20161802.889                   107889919.417 8        49.000    20161804.767
  20161804.508    83914386.195 5        33.750


  24478802.019    24478801.957   128637061.903 6        37.500    24478800.449
  24478801.267   100236720.19842        16.750


  22371824.781                   119632351.138 6        39.000    22371826.426
  22371825.796    93047310.117 5        32.250


  22842387.118                   122105644.318 7        42.000    22842391.513
  22842393.096    94971085.674 5        33.500


  20978046.656                   111982322.382 8        49.250    20978049.670
  20978050.229    87097383.408 7        45.250


  20542504.939    20542504.859   107951616.369 8        50.000
  20542503.723    84118155.38847        42.750


 16  2 18  0  0 11.0000000  0 18G26G21G27G10G16R14G31G18G20G08R15R02
                                R17G29R24R01R18G04
  20237742.499    20237742.267   106350086.285 8        51.750    20237744.060
  20237744.306    82870214.428 8        49.000    20237743.850    79417297.951 9
        55.000

  21519792.175    21519791.415   113087393.508 8        48.000
  21519789.944    88120076.78946        40.000


  21849582.371    21849582.000   114820361.118 7        47.000    21849583.305
  21849583.176    89470416.758 7        45.000    21849584.048    85742486.379 8
        51.000

  23864796.502    23864796.400   125410396.022 6        41.000    23864795.791
  23864795.970    97722367.809 6        37.500    23864795.098    93650600.171 7
        43.000

  20469405.627    20469405.006   107567475.383 8        50.250
  20469403.637    83818808.90547        44.000


  21649069.255                   115401742.103 6        40.250    21649074.133
  21649074.996    89756931.700 6        36.750


  23873737.094    23873737.077   125457350.802 6        38.500    23873735.332
  23873735.949    97758963.813 5        35.500


  22753003.469    22753002.799   119567864.926 7        43.750
  22753002.973    93169778.50044        29.000


  23588625.588    23588624.739   123959081.027 6        40.000
  23588624.067    96591491.29943        21.000


  24488788.778    24488788.483   128689462.568 6        36.750    24488790.544
  24488791.121   100277529.126 5        32.250    24488791.939    96099284.441 6
        41.750

  19512723.800                   104270091.910 8        50.000    19512728.706
  19512727.932    81098987.031 8        48.500


  23514340.046                   125477018.896 6        40.750    23514344.961
  23514345.193    97593259.235 6        38.500


  20162179.820                   107891936.359 8        49.000    20162181.148
  20162181.220    83915954.910 5        32.250


  24479340.880    24479340.804   128639893.230 6        37.500    24479338.855
  24479340.013   100238926.43242        16.750


  22372413.613                   119635502.754 6        39.000    22372415.969
  22372414.847    93049761.346 5        31.250


  22842178.025                   122104528.836 6        41.750    22842183.950
  22842184.544    94970218.087 5        34.250


  20977659.212                   111980254.346 8        49.250    20977662.244
  20977662.767    87095774.940 7        45.500


  20542779.724    20542779.640   107953060.565 8        50.000
  20542778.544    84119280.73647        42.750


 16  2 18  0  0 12.0000000  0 18G26G21G27G10G16R14G31G18G20G08R15R02
                                R17G29R24R01R18G04
  20237854.755    20237854.519   106350675.798 8        51.750    20237856.284
  20237856.486    82870673.788 8        49.000    20237856.025    79417738.166 9
        55.000

  21520075.484    21520074.729   113088882.434 8        48.000
  21520073.279    88121236.99146        40.000


  21849196.680    21849196.309   114818334.170 7        47.000    21849197.538
  21849197.453    89468837.319 7        45.000    21849198.343    85740972.755 8
        51.000

  23864176.977    23864176.870   125407141.227 6        41.000    23864176.279
  23864176.619    97719831.596 6        37.500    23864175.658    93648169.627 7
        43.000

  20469172.320    20469171.699   107566249.394 8        50.250
  20469170.339    83817853.58647        44.000


  21649865.132                   115405982.645 6        40.500    21649869.322
  21649870.417    89760229.903 6        37.000


  23874398.867    23874398.841   125460827.970 6        38.500    23874397.146
  23874397.678    97761673.284 5        35.750


  22752685.179    22752684.509   119566192.362 7        43.750
  22752684.723    93168475.20244        29.000


  23588863.250    23588862.401   123960329.935 6        40.000
  23588861.752    96592464.46743        21.000


  24488267.892    24488267.606   128686725.830 6        36.750    24488269.743
  24488270.289   100275396.649 5        32.500    24488271.183    96097240.769 6
        41.750

  19513013.101                   104271637.680 8        50.000    19513018.127
  19513017.219    81100189.296 8        48.250


  23513683.567                   125473514.712 6        40.750    23513688.839
  23513688.477    97590533.750 6        39.000


  20162556.657                   107893953.572 8        48.750    20162558.938
  20162558.267    83917523.863 5        33.750


  24479879.608    24479879.528   128642724.582 6        37.500    24479877.430
  24479878.772   100241132.68642        16.750


  22373002.879                   119638654.396 6        39.250    22373004.851
  22373003.974    93052212.634 5        32.000


  22841969.893                   122103414.114 6        41.750    22841974.843
  22841976.073    94969351.081 5        34.000


  20977271.876                   111978186.677 8        49.250    20977274.921
  20977275.350    87094166.753 7        45.250


  20543054.586    20543054.506   107954505.271 8        50.000
  20543053.464    84120406.48047        42.750


 16  2 18  0  0 13.0000000  0 18G26G21G27G10G16R14G31G18G20G08R15R02
                                R17G29R24R01R18G04
  20237967.002    20237966.766   106351265.842 8        51.750    20237968.611
  20237968.764    82871133.566 8        49.000    20237968.298    79418178.791 9
        55.000

  21520358.895    21520358.140   113090371.724 8        48.000
  21520356.691    88122397.47746        40.000


  21848811.020    21848810.645   114816307.434 7        47.000    21848811.883
  21848811.776    89467258.042 7        45.000    21848812.657    85739459.281 8
        51.000

  23863557.536    23863557.429   125403886.482 6        41.250    23863557.089
  23863557.264    97717295.443 6        37.750    23863556.253    93645739.142 7
        43.000

  20468939.143    20468938.522   107565023.849 8        50.250
  20468937.126    83816898.61747        44.000


  21650660.321                   115410223.507 6        40.500    21650665.772
  21650666.178    89763528.336 6        37.250


  23875060.699    23875060.659   125464305.194 6        38.500    23875059.103
  23875059.411    97764382.794 5        35.750


  22752367.059    22752366.389   119564520.172 7        43.750
  22752366.540    93167172.19744        29.000


  23589101.274    23589100.429   123961579.434 6        40.000
  23589099.544    96593438.10543        21.000


  24487746.818    24487746.550   128683989.147 6        36.750    24487749.260
  24487749.497   100273264.164 5        32.500    24487750.476    96095197.131 6
        41.750

  19513302.496                   104273184.303 8        50.000    19513307.195
  19513306.676    81101392.228 8        48.500


  23513026.798                   125470010.698 6        40.500    23513032.311
  23513031.958    97587808.410 6        38.500


  20162933.597                   107895971.050 8        48.750    20162936.669
  20162935.189    83919093.003 5        33.000


  24480418.054    24480417.965   128645555.913 6        37.250    24480417.102
  24480417.513   100243338.90942        16.250


  22373592.261                   119641806.031 6        39.250    22373595.574
  22373593.504    93054663.902 5        32.250


  22841761.784                   122102300.140 7        42.000    22841766.439
  22841767.776    94968484.657 5        34.000


  20976884.740                   111976119.383 8        49.250    20976887.808
  20976888.018    87092558.858 7        45.250


  20543329.631    20543329.551   107955950.465 8        50.000
  20543328.482    84121532.60547        42.750


 16  2 18  0  0 14.0000000  0 18G26G21G27G10G16R14G31G18G20G08R15R02
                                R17G29R24R01R18G04
  20238079.302    20238079.070   106351856.414 8        51.750    20238080.881
  20238081.144    82871593.753 8        49.000    20238080.688    79418619.803 9
        55.000

  21520642.275    21520641.520   113091861.391 8        48.000
  21520640.165    88123558.25646        40.000


  21848425.383    21848425.008   114814280.892 7        47.000    21848426.358
  21848426.139    89465678.918 7        45.000    21848427.042    85737945.958 8
        51.000

  23862938.360    23862938.253   125400631.801 6        41.250    23862937.470
  23862937.926    97714759.340 6        37.750    23862936.786    93643308.712 7
        43.000

  20468706.042    20468705.421   107563798.743 8        50.250
  20468703.998    83815943.98947        43.750


  21651456.055                   115414464.723 6        40.500    21651461.515
  21651462.096    89766827.083 6        37.000


  23875722.642    23875722.607   125467782.448 6        38.500    23875720.567
  23875721.158    97767092.356 6        36.250


  22752049.033    22752048.363   119562848.385 7        44.000
  22752048.416    93165869.50744        29.000


  23589338.995    23589338.155   123962829.519 6        40.000
  23589337.452    96594412.19343        21.000


  24487226.116    24487225.866   128681252.531 6        36.750    24487228.544
  24487228.700   100271131.743 5        32.250    24487229.711    96093153.562 6
        41.750

  19513592.172                   104274731.800 8        50.000    19513596.853
  19513596.259    81102595.835 8        48.500


  23512369.925                   125466506.864 6        40.500    23512375.180
  23512375.332    97585083.202 6        39.000


  20163310.546                   107897988.792 8        48.750    20163314.190
  20163312.558    83920662.371 5        34.000


  24480957.131    24480957.051   128648387.252 6        37.250    24480955.472
  24480956.263   100245545.14342        16.750


  22374181.786                   119644957.698 6        39.000    22374184.760
  22374182.909    93057115.250 5        32.000


  22841553.446                   122101186.910 6        41.750    22841558.477
  22841559.577    94967618.803 5        34.000


  20976497.663                   111974052.475 8        49.250    20976500.557
  20976500.847    87090951.269 7        45.250


  20543604.761    20543604.677   107957396.165 8        50.000
  20543603.594    84122659.12347        42.750


 16  2 18  0  0 15.0000000  0 18G26G21G27G10G16R14G31G18G20G08R15R02
                                R17G29R24R01R18G04
  20238191.790    20238191.558   106352447.528 8        51.500    20238193.445
  20238193.628    82872054.360 8        49.000    20238193.158    79419061.220 9
        55.000

  21520925.812    21520925.057   113093351.441 8        48.000
  21520923.715    88124719.33446        39.750


  21848039.728    21848039.353   114812254.550 7        46.750    21848040.850
  21848040.533    89464099.957 7        45.000    21848041.450    85736432.784 8
        51.000

  23862318.843    23862318.732   125397377.227 6        41.250    23862318.477
  23862318.553    97712223.293 6        37.750    23862317.421    93640878.343 7
        43.000

  20468473.034    20468472.413   107562574.083 8        50.250
  20468470.946    83814989.70947        43.750


  21652252.048                   115418706.312 6        40.500    21652257.812
  21652257.700    89770126.081 6        36.750


  23876384.170    23876384.130   125471259.762 6        38.500    23876382.519
  23876382.877    97769801.935 6        36.000


  22751731.006    22751730.336   119561176.985 7        44.000
  22751730.371    93164567.11644        29.000


  23589576.992    23589576.147   123964080.198 6        40.000
  23589575.454    96595386.73843        21.000


  24486705.275    24486705.043   128678515.972 6        36.750    24486707.873
  24486707.949   100268999.338 5        32.000    24486708.973    96091110.037 7
        42.000

  19513882.188                   104276280.176 8        50.000    19513886.583
  19513886.038    81103800.127 8        48.250


  23511713.424                   125463003.237 6        40.500    23511718.607
  23511718.727    97582358.170 6        39.250


  20163687.598                   107900006.834 8        48.750    20163691.063
  20163689.900    83922231.965 5        33.500


  24481495.872    24481495.792   128651218.615 6        37.000    24481494.329
  24481495.044   100247751.42142        16.750


  22374771.320                   119648109.375 6        39.000    22374774.249
  22374772.251    93059566.561 5        32.250


  22841345.328                   122100074.452 7        42.000    22841350.600
  22841351.508    94966753.574 5        33.500


  20976110.497                   111971985.953 8        49.250    20976113.506
  20976113.685    87089343.963 7        45.250


  20543879.949    20543879.869   107958842.372 8        50.000
  20543878.800    84123786.03547        42.750


 16  2 18  0  0 16.0000000  0 18G26G21G27G10G16R14G31G18G20G08R15R02
                                R17G29R24R01R18G04
  20238304.363    20238304.127   106353039.179 8        51.750    20238306.031
  20238306.215    82872515.387 8        49.000    20238305.736    79419503.034 9
        55.000

  21521209.429    21521208.674   113094841.853 8        48.000
  21521207.332    88125880.69346        39.750


  21847654.180    21847653.805   114810228.426 7        46.750    21847655.173
  21847654.967    89462521.167 7        45.000    21847655.866    85734919.771 8
        51.000

  23861699.291    23861699.180   125394122.690 6        41.000    23861699.269
  23861699.184    97709687.285 6        38.000    23861698.044    93638448.016 7
        43.000

  20468240.027    20468239.406   107561349.866 8        50.250
  20468237.984    83814035.77347        43.750


  21653047.774                   115422948.244 6        40.500    21653053.224
  21653053.385    89773425.361 6        37.500


  23877045.831    23877045.787   125474737.139 6        38.250    23877044.297
  23877044.633    97772511.593 6        36.000


  22751413.159    22751412.489   119559505.968 7        43.750
  22751412.372    93163265.02544        29.000


  23589815.106    23589814.261   123965331.472 6        40.000
  23589813.510    96596361.75643        21.250


  24486184.814    24486184.595   128675779.500 6        36.500    24486187.899
  24486187.215   100266867.002 5        32.250    24486188.248    96089066.561 6
        41.750

  19514172.155                   104277829.411 8        50.000    19514176.318
  19514175.929    81105005.091 8        48.250


  23511056.382                   125459499.817 6        40.250    23511062.468
  23511062.034    97579633.273 6        38.500


  20164064.752                   107902025.138 8        48.500    20164067.592
  20164066.957    83923801.736 5        33.250


  24482034.881    24482034.805   128654049.947 6        37.250    24482033.951
  24482033.812   100249957.63842        16.750


  22375360.801                   119651261.092 6        39.000    22375362.661
  22375361.780    93062017.874 5        32.500


  22841137.116                   122098962.726 7        42.250    22841142.844
  22841143.586    94965888.884 5        34.500


  20975723.335                   111969919.774 8        49.250    20975726.546
  20975726.635    87087736.943 7        45.500


  20544155.240    20544155.156   107960289.081 8        50.000
  20544154.096    84124913.34047        42.750


 16  2 18  0  0 17.0000000  0 18G26G21G27G10G16R14G31G18G20G08R15R02
                                R17G29R24R01R18G04
  20238417.088    20238416.856   106353631.365 8        51.500    20238418.658
  20238418.908    82872976.831 8        49.000    20238418.425    79419945.247 9
        55.000

  21521493.095    21521492.340   113096332.647 8        48.000
  21521491.021    88127042.35146        40.000


  21847268.548    21847268.173   114808202.517 7        46.750    21847269.692
  21847269.442    89460942.529 7        45.250    21847270.363    85733406.914 8
        51.000

  23861079.828    23861079.708   125390868.250 6        41.250    23861079.757
  23861079.855    97707151.346 6        37.750    23861078.648    93636017.749 7
        43.000

  20468007.190    20468006.569   107560126.092 8        50.250
  20468005.106    83813082.18347        43.750


  21653843.427                   115427190.528 6        40.500    21653848.798
  21653849.129    89776724.909 6        37.500


  23877707.502    23877707.449   125478214.551 6        38.250    23877705.901
  23877706.379    97775221.255 6        36.250


  22751095.276    22751094.606   119557835.329 7        43.750
  22751094.471    93161963.22944        29.250


  23590053.261    23590052.412   123966583.335 6        40.000
  23590051.686    96597337.24643        21.250


  24485664.200    24485663.990   128673043.084 6        36.750    24485667.478
  24485666.485   100264734.748 5        32.250    24485667.527    96087023.130 6
        41.750

  19514462.233                   104279379.511 8        50.000    19514466.557
  19514466.034    81106210.720 8        48.250


  23510399.626                   125455996.557 6        40.250    23510405.510
  23510405.475    97576908.524 6        39.000


  20164441.813                   107904043.716 8        48.500    20164443.485
  20164444.357    83925371.755 5        33.250


  24482573.622    24482573.546   128656881.319 6        37.000    24482573.873
  24482572.594   100252163.89442        16.500


  22375949.808                   119654412.819 6        39.000    22375951.328
  22375951.180    93064469.210 5        31.250


  22840929.659                   122097851.763 7        42.250    22840935.236
  22840935.701    94965024.802 5        34.000


  20975336.437                   111967853.944 8        49.250    20975339.714
  20975339.625    87086130.188 7        45.500


  20544430.634    20544430.554   107961736.295 8        50.000
  20544429.498    84126041.04047        42.750


 16  2 18  0  0 18.0000000  0 18G26G21G27G10G16R14G31G18G20G08R15R02
                                R17G29R24R01R18G04
  20238529.966    20238529.730   106354224.083 8        51.500    20238531.329
  20238531.696    82873438.686 8        49.000    20238531.240    79420387.861 9
        55.000

  21521776.905    21521776.150   113097823.820 8        48.000
  21521774.790    88128204.30646        40.000


  21846882.995    21846882.620   114806176.811 7        46.750    21846884.301
  21846883.961    89459364.060 7        45.250    21846884.860    85731894.211 8
        51.000

  23860460.415    23860460.295   125387613.866 6        41.000    23860460.330
  23860460.567    97704615.468 6        37.750    23860459.315    93633587.521 7
        42.750

  20467774.366    20467773.745   107558902.759 8        50.000
  20467772.318    83812128.93747        43.750


  21654639.349                   115431433.148 6        40.500    21654644.630
  21654645.077    89780024.742 6        37.250


  23878369.463    23878369.410   125481692.023 6        38.000    23878367.549
  23878368.094    97777930.962 6        36.000


  22750777.258    22750776.583   119556165.087 7        43.750
  22750776.624    93160661.74044        29.000


  23590291.482    23590290.633   123967835.779 6        40.000
  23590290.024    96598313.18143        21.000


  24485143.748    24485143.525   128670306.744 6        36.500    24485146.181
  24485145.810   100262602.555 5        32.000    24485146.856    96084979.760 6
        41.750

  19514752.468                   104280930.470 8        50.000    19514756.980
  19514756.242    81107417.012 8        48.500


  23509742.928                   125452493.423 6        40.250    23509749.085
  23509749.259    97574183.849 6        39.000


  20164819.128                   107906062.568 8        48.750    20164821.288
  20164821.552    83926941.975 5        32.750


  24483112.292    24483112.216   128659712.664 6        37.000    24483112.864
  24483111.353   100254370.13642        15.750


  22376539.445                   119657564.563 6        39.000    22376542.123
  22376540.451    93066920.533 5        31.500


  22840722.136                   122096741.550 7        42.250    22840727.757
  22840727.837    94964161.299 5        33.750


  20974949.610                   111965788.468 8        49.500    20974953.031
  20974952.749    87084523.703 7        45.250


  20544706.176    20544706.096   107963184.010 8        50.000
  20544704.999    84127169.12947        42.750


 16  2 18  0  0 19.0000000  0 18G26G21G27G10G16R14G31G18G20G08R15R02
                                R17G29R24R01R18G04
  20238642.905    20238642.669   106354817.326 8        51.500    20238644.211
  20238644.587    82873900.959 8        49.000    20238644.122    79420830.871 9
        55.000

  21522060.763    21522060.003   113099315.367 8        48.000
  21522058.626    88129366.55046        40.000


  21846497.483    21846497.108   114804151.306 7        46.750    21846498.802
  21846498.521    89457785.751 7        45.000    21846499.428    85730381.665 8
        51.000

  23859841.090    23859840.965   125384359.553 6        41.000    23859840.853
  23859841.292    97702079.657 6        37.500    23859840.035    93631157.374 7
        42.750

  20467541.645    20467541.024   107557679.863 8        50.000
  20467539.610    83811176.03247        44.000


  21655435.021                   115435676.109 6        40.500    21655440.364
  21655440.843    89783324.840 6        37.250


  23879030.901    23879030.839   125485169.557 6        38.000    23879029.398
  23879029.845    97780640.715 6        36.250


  22750459.411    22750458.741   119554495.217 7        43.750
  22750458.870    93159360.54444        29.250


  23590529.859    23590529.010   123969088.817 6        39.750
  23590528.478    96599289.57243        20.750


  24484622.773    24484622.550   128667570.451 6        36.500    24484624.964
  24484625.121   100260470.367 5        32.250    24484626.136    96082936.434 6
        41.750

  19515042.860                   104282482.278 8        50.000    19515047.434
  19515046.652    81108623.978 8        48.250


  23509086.932                   125448990.412 6        40.750    23509092.539
  23509093.018    97571459.298 6        38.750


  20165196.591                   107908081.678 8        48.750    20165199.158
  20165198.420    83928512.381 5        33.500


  24483651.109    24483651.038   128662544.007 6        37.250    24483652.034
  24483650.138   100256576.37342        15.750


  22377128.746                   119660716.311 6        38.750    22377132.391
  22377130.034    93069371.908 5        31.750


  22840514.366                   122095632.104 7        42.250    22840520.054
  22840520.206    94963298.395 5        33.500


  20974562.806                   111963723.349 8        49.500    20974566.316
  20974565.851    87082917.504 7        45.250


  20544981.739    20544981.659   107964632.212 8        50.000
  20544980.581    84128297.59847        42.750


 16  2 18  0  0 20.0000000  0 18G26G21G27G10G16R14G31G18G20G08R15R02
                                R17G29R24R01R18G04
  20238755.854    20238755.622   106355411.108 8        51.500    20238757.227
  20238757.580    82874363.641 8        49.000    20238757.115    79421274.277 9
        55.000

  21522344.600    21522343.840   113100807.306 8        48.000
  21522342.529    88130529.09846        40.000


  21846112.114    21846111.739   114802126.014 7        46.750    21846113.384
  21846113.125    89456207.607 7        45.000    21846114.019    85728869.272 8
        51.000

  23859221.713    23859221.584   125381105.332 6        41.000    23859222.182
  23859222.012    97699543.879 6        37.500    23859220.657    93628727.255 7
        42.750

  20467308.928    20467308.307   107556457.419 8        50.000
  20467306.983    83810223.47747        44.000


  21656231.005                   115439919.445 6        40.250    21656236.582
  21656236.971    89786625.185 6        37.500


  23879692.455    23879692.388   125488647.135 6        38.000    23879691.672
  23879691.601    97783350.534 6        36.250


  22750141.671    22750140.992   119552825.738 7        43.750
  22750141.179    93158059.65444        29.250


  23590768.376    23590767.522   123970342.437 6        39.750
  23590767.066    96600266.41643        20.750


  24484101.851    24484101.628   128664834.234 6        36.500    24484104.253
  24484104.409   100258338.253 5        32.250    24484105.460    96080893.159 6
        41.500

  19515333.346                   104284034.952 8        50.000    19515337.893
  19515337.182    81109831.611 8        48.500


  23508430.869                   125445487.579 6        41.250    23508436.203
  23508436.610    97568734.875 6        39.500


  20165573.880                   107910101.069 8        48.750    20165577.989
  20165575.780    83930083.031 5        33.000


  24484189.872    24484189.805   128665375.384 6        37.500    24484190.449
  24484188.956   100258782.64442        15.500


  22377718.513                   119663868.085 6        38.750    22377720.440
  22377719.372    93071823.259 5        31.750


  22840307.058                   122094523.420 7        42.250    22840312.866
  22840312.786    94962436.100 5        34.250


  20974176.060                   111961658.606 8        49.750    20974179.677
  20974179.060    87081311.588 7        45.500


  20545257.455    20545257.371   107966080.925 8        50.000
  20545256.270    84129426.46647        42.750


 16  2 18  0  0 21.0000000  0 18G26G21G27G10G16R14G31G18G20G08R15R02
                                R17G29R24R01R18G04
  20238868.888    20238868.656   106356005.429 8        51.500    20238870.363
  20238870.672    82874826.752 8        49.000    20238870.229    79421718.095 9
        55.000

  21522628.655    21522627.900   113102299.614 8        48.000
  21522626.500    88131691.93546        40.000


  21845726.692    21845726.317   114800100.925 7        46.750    21845728.015
  21845727.765    89454629.616 7        45.000    21845728.664    85727357.029 8
        51.000

  23858602.102    23858601.964   125377851.156 6        40.750    23858603.006
  23858602.679    97697008.173 6        37.750    23858601.449    93626297.197 7
        42.750

  20467076.292    20467075.671   107555235.411 8        50.000
  20467074.441    83809271.26347        44.000


  21657026.766                   115444163.104 6        40.500    21657032.951
  21657033.201    89789925.801 6        37.250


  23880354.380    23880354.309   125492124.760 6        38.000    23880353.307
  23880353.378    97786060.360 6        36.250


  22749824.087    22749823.412   119551156.654 7        44.000
  22749823.600    93156759.07044        29.250


  23591006.861    23591005.998   123971596.663 6        40.000
  23591005.707    96601243.73043        20.750


  24483580.778    24483580.555   128662098.088 6        36.500    24483583.246
  24483583.706   100256206.189 5        32.250    24483584.838    96078849.931 6
        41.750

  19515623.996                   104285588.486 8        50.000    19515628.750
  19515627.927    81111039.916 8        48.500


  23507775.029                   125441984.964 6        41.250    23507779.505
  23507780.167    97566010.607 6        39.500


  20165951.406                   107912120.722 8        48.750    20165955.676
  20165952.738    83931653.867 5        32.750


  24484728.403    24484728.341   128668206.722 6        37.750    24484729.275
  24484727.750   100260988.87542        16.000


  22378307.529                   119667019.883 6        38.750    22378309.791
  22378308.919    93074274.667 5        31.750


  22840099.784                   122093415.489 7        42.250    22840105.414
  22840105.714    94961574.396 5        34.000


  20973789.363                   111959594.232 8        49.500    20973792.542
  20973792.345    87079705.974 7        45.250


  20545533.233    20545533.153   107967530.134 8        50.000
  20545532.053    84130555.71847        42.750


 16  2 18  0  0 22.0000000  0 18G26G21G27G10G16R14G31G18G20G08R15R02
                                R17G29R24R01R18G04
  20238982.060    20238981.828   106356600.285 8        51.500    20238983.656
  20238983.871    82875290.278 8        49.000    20238983.424    79422162.303 9
        54.750

  21522912.679    21522911.924   113103792.302 8        48.000
  21522910.551    88132855.07046        40.000


  21845341.296    21845340.921   114798076.047 7        47.000    21845342.673
  21845342.441    89453051.784 7        45.000    21845343.366    85725844.945 8
        51.000

  23857983.069    23857982.931   125374597.075 6        40.500    23857983.350
  23857983.449    97694472.533 6        37.750    23857982.304    93623867.205 7
        43.000

  20466843.799    20466843.178   107554013.848 8        50.000
  20466841.988    83808319.39747        44.000


  21657822.778                   115448407.103 6        40.250    21657829.177
  21657829.141    89793226.720 6        37.250


  23881015.755    23881015.679   125495602.439 6        37.750    23881015.299
  23881015.161    97788770.229 6        36.500


  22749506.741    22749506.066   119549487.965 7        44.000
  22749506.070    93155458.79544        29.250


  23591245.431    23591244.573   123972851.466 6        39.750
  23591244.398    96602221.49643        20.750


  24483060.178    24483059.973   128659361.996 6        36.500    24483062.709
  24483063.035   100254074.186 5        32.000    24483064.108    96076806.746 6
        41.750

  19515914.804                   104287142.885 8        50.000    19515919.531
  19515918.766    81112248.896 8        48.500


  23507118.559                   125438482.555 6        41.500    23507123.304
  23507123.903    97563286.517 6        39.250


  20166328.891                   107914140.639 8        48.750    20166332.142
  20166330.483    83933224.928 5        32.500


  24485267.430    24485267.377   128671038.100 6        37.750    24485268.061
  24485266.536   100263195.14542        16.000


  22378897.251                   119670171.700 6        38.500    22378898.986
  22378898.494    93076726.132 5        32.000


  22839892.815                   122092308.311 7        42.250    22839898.096
  22839898.463    94960713.250 5        33.500


