     2.11           OBSERVATION DATA    M (MIXED)           RINEX VERSION / TYPE
teqc  2015Nov6      NGS Web User        20160116 23:23:56UTCPGM / RUN BY / DATE
Solaris x86 5.10|AMD64|cc SC5.8 -xarch=amd64|=+|=+          COMMENT
teqc  2015Nov6      NOAA/NOS/NGS/CORS   20160116 06:49:33UTCCOMMENT
Spider V5.3.1.6235                      2016 01 15 01:59    COMMENT
BIT 2 OF LLI FLAGS DATA COLLECTED UNDER A/S CONDITION       COMMENT
SNR is mapped to RINEX snr flag value [1-9]                 COMMENT
LX:    >= 25dBHz -> 1; 26-27dBHz -> 2; 28-31dBHz -> 3       COMMENT
       32-35dBHz -> 4; 36-38dBHz -> 5; 39-41dBHz -> 6       COMMENT
       42-44dBHz -> 7; 45-48dBHz -> 8; >= 49dBHz -> 9       COMMENT
teqc edited: all SBAS satellites excluded                   COMMENT
teqc edited: all Compass satellites excluded                COMMENT
teqc edited: all QZSS satellites excluded                   COMMENT
CAPO                                                        MARKER NAME
3215                                                        MARKER NUMBER
SmartNet  NA        SMRTNT                                  OBSERVER / AGENCY
353424              LEICA GRX1200GGPRO  9.20/3.823          REC # / TYPE / VERS
200005              LEIAT504GG      LEIS                    ANT # / TYPE
 -2693674.7660 -4273831.4480  3880383.2100                  APPROX POSITION XYZ
        0.0000        0.0000        0.0000                  ANTENNA: DELTA H/E/N
     1     1                                                WAVELENGTH FACT L1/2
     4    C1    L1    P2    L2                              # / TYPES OF OBSERV
     1.0000                                                 INTERVAL
teqc windowed: start @ 2016 Jan 15 00:00:00.000             COMMENT
teqc windowed:  end  @ 2016 Jan 15 01:00:00.000             COMMENT
teqc edited: all GLONASS satellites excluded                COMMENT
  2016     1    15     0     0    0.0000000     GPS         TIME OF FIRST OBS
    17                                                      LEAP SECONDS
                                                            END OF HEADER
 16  1 15  0  0  0.0000000  0  8G03G06G07G09G16G23G26G32
  21131363.900   111046115.899 9  21131365.300    86529469.64349
  24137007.500   126840835.591 7  24137010.880    98837034.34645
  23207194.880   121954655.101 8  23207194.560    95029620.00946
  21926577.480   115224986.128 9  21926578.340    89785732.44148
  21157256.920   111182199.407 9  21157255.100    86635506.67048
  20628791.480   108405113.967 9  20628787.520    84471554.57749
  22563073.140   118569830.579 8  22563075.260    92392116.29047
  23775661.200   124941941.665 8  23775661.280    97357365.81445
 16  1 15  0  0  1.0000000  0  8G03G06G07G09G16G23G26G32
  21131809.220   111048456.187 9  21131810.640    86531293.24249
  24137112.840   126841389.065 7  24137116.200    98837465.63745
  23206698.380   121952045.942 8  23206698.080    95027586.89446
  21926156.800   115222775.419 9  21926157.640    89784009.81348
  21157220.760   111182009.325 9  21157218.920    86635358.55448
  20628645.460   108404346.635 9  20628641.500    84470956.65549
  22563416.820   118571636.640 8  22563418.940    92393523.61347
  23776311.940   124945361.224 8  23776312.000    97360030.40444
 16  1 15  0  0  2.0000000  0  8G03G06G07G09G16G23G26G32
  21132254.680   111050797.064 9  21132256.100    86533117.29949
  24137218.280   126841943.182 7  24137221.640    98837897.41045
  23206201.940   121949437.100 8  23206201.640    95025554.03646
  21925736.160   115220564.957 9  21925737.000    89782287.37548
  21157184.740   111181820.078 9  21157182.900    86635211.08648
  20628499.500   108403579.671 9  20628495.560    84470359.01749
  22563760.620   118573443.369 8  22563762.760    92394931.45347
  23776962.720   124948781.023 8  23776962.760    97362695.17445
 16  1 15  0  0  3.0000000  0  8G03G06G07G09G16G23G26G32
  21132700.240   111053138.534 9  21132701.660    86534941.82049
  24137323.840   126842497.943 7  24137327.180    98838329.68546
  23205705.560   121946828.593 8  23205705.260    95023521.43546
  21925315.580   115218354.733 9  21925316.420    89780565.12348
  21157148.900   111181631.630 9  21157147.040    86635064.24648
  20628353.640   108402813.071 9  20628349.680    84469761.66949
  22564104.560   118575250.744 8  22564106.680    92396339.79747
  23777613.540   124952201.052 8  23777613.580    97365360.13845
 16  1 15  0  0  4.0000000  0  8G03G06G07G09G16G23G26G32
  21133145.920   111055480.664 9  21133147.360    86536766.85649
  24137429.540   126843053.385 7  24137432.880    98838762.49745
  23205209.240   121944220.450 8  23205208.940    95021489.11646
  21924895.040   115216144.786 9  21924895.880    89778843.09048
  21157113.200   111181444.067 9  21157111.340    86634918.09348
  20628207.840   108402046.887 9  20628203.880    84469164.64249
  22564448.620   118577058.833 8  22564450.760    92397748.69847
  23778264.440   124955621.416 8  23778264.460    97368025.35645
 16  1 15  0  0  5.0000000  0  8G03G06G07G09G16G23G26G32
  21133591.700   111057823.241 9  21133593.140    86538592.24049
  24137535.340   126843609.352 7  24137538.680    98839195.72446
  23204712.980   121941612.510 8  23204712.660    95019456.95746
  21924474.500   115213934.920 9  21924475.340    89777121.11448
  21157077.640   111181257.200 9  21157075.780    86634772.48748
  20628062.080   108401280.937 9  20628058.120    84468567.79349
  22564792.780   118578867.435 8  22564794.920    92399157.99447
  23778915.320   124959041.876 8  23778915.360    97370690.64645
 16  1 15  0  0  6.0000000  0  8G03G06G07G09G16G23G26G32
  21134037.560   111060166.235 9  21134038.980    86540417.94849
  24137641.220   126844165.768 7  24137644.600    98839629.29545
  23204216.720   121939004.696 8  23204216.400    95017424.89646
  21924054.000   115211725.138 9  21924054.840    89775399.21148
  21157042.200   111181070.967 9  21157040.340    86634627.36848
  20627916.360   108400515.173 9  20627912.400    84467971.09449
  22565137.040   118580676.518 8  22565139.180    92400567.67347
  23779566.240   124962462.413 8  23779566.260    97373355.99745
 16  1 15  0  0  7.0000000  0  8G03G06G07G09G16G23G26G32
  21134483.480   111062509.605 9  21134484.920    86542243.95149
  24137747.200   126844722.631 7  24137750.540    98840063.21446
  23203720.500   121936397.029 8  23203720.180    95015392.94846
  21923633.500   115209515.380 9  21923634.340    89773677.32548
  21157006.900   111180885.367 9  21157005.020    86634482.74548
  20627770.680   108399749.583 9  20627766.720    84467374.53549
  22565481.400   118582486.076 8  22565483.540    92401977.71447
  23780217.180   124965883.008 8  23780217.200    97376021.39445
 16  1 15  0  0  8.0000000  0  8G03G06G07G09G16G23G26G32
  21134929.500   111064853.522 9  21134930.940    86544070.37749
  24137853.260   126845280.067 7  24137856.620    98840497.58046
  23203224.320   121933789.591 8  23203224.000    95013361.18246
  21923213.040   115207305.790 9  21923213.860    89771955.56948
  21156971.720   111180700.532 9  21156969.840    86634338.71948
  20627625.040   108398984.294 9  20627621.080    84466778.20649
  22565825.860   118584296.207 8  22565828.000    92403388.20447
  23780868.140   124969303.760 8  23780868.160    97378686.91345
 16  1 15  0  0  9.0000000  0  8G03G06G07G09G16G23G26G32
  21135375.600   111067197.877 9  21135377.060    86545897.14849
  24137959.440   126845838.002 7  24137962.840    98840932.34145
  23202728.180   121931182.352 8  23202727.860    95011329.56846
  21922792.580   115205096.292 9  21922793.400    89770233.88248
  21156936.680   111180516.364 9  21156934.800    86634195.21248
  20627479.460   108398219.219 9  20627475.500    84466182.04349
  22566170.420   118586106.848 8  22566172.560    92404799.09147
  23781519.120   124972724.643 8  23781519.140    97381352.53445
 16  1 15  0  0 10.0000000  0  8G03G06G07G09G16G23G26G32
  21135821.800   111069542.619 9  21135823.260    86547724.22149
  24138065.700   126846396.344 7  24138069.080    98841367.41945
  23202232.060   121928575.198 8  23202231.720    95009298.02146
  21922372.120   115202886.799 9  21922372.940    89768512.19948
  21156901.740   111180332.805 9  21156899.860    86634052.17948
  20627333.900   108397454.288 9  20627329.940    84465585.98949
  22566515.040   118587917.912 8  22566517.180    92406210.31047
  23782170.100   124976145.543 8  23782170.100    97384018.16845
 16  1 15  0  0 11.0000000  0  8G03G06G07G09G16G23G26G32
  21136268.020   111071887.555 9  21136269.480    86549551.44249
  24138172.000   126846954.959 7  24138175.340    98841802.69945
  23201735.920   121925967.996 8  23201735.600    95007266.43546
  21921951.640   115200677.170 9  21921952.460    89766790.41448
  21156866.900   111180149.707 9  21156865.020    86633909.50348
  20627188.340   108396689.357 9  20627184.380    84464989.93949
  22566859.740   118589729.283 8  22566861.880    92407621.76847
  23782821.060   124979566.337 8  23782821.060    97386683.72446
 16  1 15  0  0 12.0000000  0  8G03G06G07G09G16G23G26G32
  21136714.360   111074233.069 9  21136715.840    86551379.11649
  24138278.420   126847514.190 7  24138281.760    98842238.45346
  23201239.840   121923361.086 8  23201239.520    95005235.07746
  21921531.220   115198467.756 9  21921532.020    89765068.79348
  21156832.220   111179967.391 9  21156830.340    86633767.44148
  20627042.840   108395924.760 9  20627038.880    84464394.14749
  22567204.540   118591541.262 8  22567206.680    92409033.69747
  23783472.060   124982987.320 8  23783472.040    97389349.42645
 16  1 15  0  0 13.0000000  0  8G03G06G07G09G16G23G26G32
  21137160.800   111076579.206 9  21137162.280    86553207.27249
  24138384.960   126848074.082 7  24138388.300    98842674.73346
  23200743.840   121920754.552 8  23200743.500    95003204.01546
  21921110.820   115196258.605 9  21921111.620    89763347.37448
  21156797.700   111179785.959 9  21156795.800    86633626.06348
  20626897.420   108395160.576 9  20626893.460    84463798.68149
  22567549.480   118593353.947 8  22567551.620    92410446.17947
  23784123.120   124986408.616 8  23784123.120    97392015.36645
 16  1 15  0  0 14.0000000  0  8G03G06G07G09G16G23G26G32
  21137607.360   111078925.900 9  21137608.840    86555035.86749
  24138491.600   126848634.603 7  24138494.980    98843111.50645
  23200247.880   121918148.285 8  23200247.560    95001173.16047
  21920690.480   115194049.648 9  21920691.280    89761626.11348
  21156763.320   111179605.298 9  21156761.420    86633485.29348
  20626752.060   108394396.714 9  20626748.100    84463203.46249
  22567894.540   118595167.249 8  22567896.680    92411859.14047
  23784774.220   124989830.104 8  23784774.200    97394681.45545
 16  1 15  0  0 15.0000000  0  8G03G06G07G09G16G23G26G32
  21138054.020   111081273.156 9  21138055.520    86556864.89849
  24138598.380   126849195.704 7  24138601.740    98843548.72845
  23199751.980   121915542.319 8  23199751.660    94999142.53747
  21920270.160   115191840.891 9  21920270.960    89759905.00648
  21156729.100   111179425.447 9  21156727.180    86633345.14948
  20626606.760   108393633.192 9  20626602.820    84462608.50749
  22568239.720   118596981.164 8  22568241.860    92413272.58247
  23785425.360   124993251.823 8  23785425.340    97397347.71945
 16  1 15  0  0 16.0000000  0  8G03G06G07G09G16G23G26G32
  21138500.780   111083620.933 9  21138502.280    86558694.33249
  24138705.260   126849757.373 7  24138708.640    98843986.39245
  23199256.140   121912936.620 8  23199255.800    94997112.12646
  21919849.880   115189632.297 9  21919850.680    89758184.02448
  21156695.020   111179246.335 9  21156693.100    86633205.58148
  20626461.520   108392869.961 9  20626457.580    84462013.78649
  22568585.000   118598795.662 8  22568587.160    92414686.47947
  23786076.540   124996673.724 8  23786076.500    97400014.12945
 16  1 15  0  0 17.0000000  0  8G03G06G07G09G16G23G26G32
  21138947.660   111085969.300 9  21138949.160    86560524.22749
  24138812.260   126850319.698 7  24138815.620    98844424.56845
  23198760.340   121910331.226 8  23198760.020    94995081.95146
  21919429.640   115187423.944 9  21919430.440    89756463.22948
  21156661.080   111179068.050 9  21156659.160    86633066.65948
  20626316.360   108392107.095 9  20626312.400    84461419.34349
  22568930.420   118600610.833 8  22568932.580    92416100.89747
  23786727.760   125000095.863 8  23786727.720    97402680.73945
 16  1 15  0  0 18.0000000  0  8G03G06G07G09G16G23G26G32
  21139394.660   111088318.369 9  21139396.180    86562354.66649
  24138919.420   126850882.778 7  24138922.780    98844863.33146
  23198264.640   121907726.281 8  23198264.320    94993052.12647
  21919009.460   115185215.944 9  21919010.280    89754742.71248
  21156627.340   111178890.713 9  21156625.420    86632928.47348
  20626171.280   108391344.721 9  20626167.320    84460825.28649
  22569275.980   118602426.758 8  22569278.140    92417515.90447
  23787379.040   125003518.358 8  23787379.020    97405347.60845
 16  1 15  0  0 19.0000000  0  8G03G06G07G09G16G23G26G32
  21139841.800   111090668.009 9  21139843.300    86564185.55449
  24139026.700   126851446.462 7  24139030.080    98845302.56545
  23197769.000   121905121.628 8  23197768.660    94991022.52646
  21918589.340   115183008.146 9  21918590.140    89753022.35248
  21156593.740   111178714.170 9  21156591.820    86632790.90548
  20626026.280   108390582.680 9  20626022.320    84460231.48849
  22569621.660   118604243.324 8  22569623.800    92418931.40847
  23788030.380   125006941.094 8  23788030.360    97408014.67545
 16  1 15  0  0 20.0000000  0  8G03G06G07G09G16G23G26G32
  21140288.980   111093017.979 9  21140290.480    86566016.69749
  24139134.040   126852010.540 7  24139137.460    98845742.11545
  23197273.360   121902517.033 8  23197273.020    94988992.96946
  21918169.200   115180800.334 9  21918170.000    89751301.98348
  21156560.260   111178538.203 9  21156558.340    86632653.78848
  20625881.280   108389820.763 9  20625877.320    84459637.78649
  22569967.420   118606060.294 8  22569969.560    92420347.23147
  23788681.720   125010363.840 8  23788681.700    97410681.75445
 16  1 15  0  0 21.0000000  0  8G03G06G07G09G16G23G26G32
  21140736.280   111095368.567 9  21140737.780    86567848.32649
  24139241.500   126852575.275 7  24139244.940    98846182.16445
  23196777.780   121899912.818 8  23196777.480    94986963.71547
  21917749.120   115178592.773 9  21917749.900    89749581.80648
  21156526.940   111178363.087 9  21156525.020    86632517.33148
  20625736.380   108389059.227 9  20625732.400    84459044.38149
  22570313.320   118607877.935 8  22570315.460    92421763.57047
  23789333.080   125013786.834 8  23789333.060    97413349.02446
 16  1 15  0  0 22.0000000  0  8G03G06G07G09G16G23G26G32
  21141183.700   111097719.796 9  21141185.220    86569680.45349
  24139349.100   126853140.706 7  24139352.520    98846622.76646
  23196282.280   121897308.948 8  23196281.960    94984934.73046
  21917329.100   115176385.506 9  21917329.860    89747861.86148
  21156493.780   111178188.843 9  21156491.860    86632381.55948
  20625591.540   108388298.122 9  20625587.580    84458451.31249
  22570659.340   118609696.295 8  22570661.480    92423180.47447
  23789984.520   125017210.148 8  23789984.500    97416016.53545
 16  1 15  0  0 23.0000000  0  8G03G06G07G09G16G23G26G32
  21141631.200   111100071.493 9  21141632.720    86571512.94449
  24139456.800   126853706.637 7  24139460.200    98847063.74946
  23195786.820   121894705.275 8  23195786.480    94982905.89046
  21916909.080   115174178.328 9  21916909.860    89746141.98248
  21156460.760   111178015.282 9  21156458.840    86632246.31948
  20625446.740   108387537.251 9  20625442.780    84457858.42449
  22571005.460   118611515.155 8  22571007.600    92424597.77047
  23790636.000   125020633.546 8  23790635.960    97418684.11445
 16  1 15  0  0 24.0000000  0  8G03G06G07G09G16G23G26G32
  21142078.780   111102423.599 9  21142080.320    86573345.75249
  24139564.580   126854273.056 7  24139568.000    98847505.11045
  23195291.380   121892101.768 8  23195291.040    94980877.18746
  21916489.080   115171971.226 9  21916489.860    89744422.16748
  21156427.860   111177842.394 9  21156425.920    86632111.60148
  20625302.000   108386776.579 9  20625298.040    84457265.68849
  22571351.680   118613334.503 8  22571353.820    92426015.44447
  23791287.460   125024057.049 8  23791287.440    97421351.77945
 16  1 15  0  0 25.0000000  0  8G03G06G07G09G16G23G26G32
  21142526.500   111104776.339 9  21142528.020    86575179.05449
  24139672.480   126854840.103 7  24139675.900    98847946.95946
  23194796.020   121889498.594 8  23194795.680    94978848.74046
  21916069.120   115169764.387 9  21916069.920    89742702.55048
  21156395.120   111177670.331 9  21156393.180    86631977.52848
  20625157.320   108386016.296 9  20625153.360    84456673.26249
  22571698.020   118615154.551 8  22571700.180    92427433.66047
  23791938.980   125027480.807 8  23791938.980    97424019.63645
 16  1 15  0  0 26.0000000  0  8G03G06G07G09G16G23G26G32
  21142974.320   111107129.568 9  21142975.840    86577012.74049
  24139780.520   126855407.729 7  24139783.940    98848389.26946
  23194300.700   121886895.665 8  23194300.340    94976820.48346
  21915649.200   115167557.690 9  21915649.980    89740983.04848
  21156362.520   111177499.012 9  21156360.580    86631844.03248
  20625012.700   108385256.289 9  20625008.740    84456081.04749
  22572044.460   118616975.150 8  22572046.620    92428852.31347
  23792590.540   125030904.731 8  23792590.540    97426687.63346
 16  1 15  0  0 27.0000000  0  8G03G06G07G09G16G23G26G32
  21143422.160   111109483.067 9  21143423.680    86578846.63649
  24139888.580   126855975.664 7  24139892.020    98848831.81445
  23193805.360   121884292.735 8  23193805.040    94974792.23046
  21915229.260   115165350.898 9  21915230.040    89739263.47048
  21156330.020   111177328.197 9  21156328.080    86631710.93048
  20624868.080   108384496.327 9  20624864.120    84455488.87149
  22572390.980   118618796.091 8  22572393.140    92430271.23047
  23793242.080   125034328.581 8  23793242.080    97429355.56245
 16  1 15  0  0 28.0000000  0  8G03G06G07G09G16G23G26G32
  21143870.080   111111836.910 9  21143871.600    86580680.79749
  24139996.740   126856543.980 7  24140000.160    98849274.66245
  23193310.060   121881689.882 8  23193309.740    94972764.03346
  21914809.320   115163144.098 9  21914810.100    89737543.88848
  21156297.620   111177157.957 9  21156295.680    86631578.27448
  20624723.480   108383736.488 9  20624719.520    84454896.78549
  22572737.580   118620617.446 8  22572739.740    92431690.46847
  23793893.620   125037752.433 8  23793893.640    97432023.49545
 16  1 15  0  0 29.0000000  0  8G03G06G07G09G16G23G26G32
  21144318.080   111114191.158 9  21144319.600    86582515.27449
  24140104.960   126857112.762 7  24140108.400    98849717.86845
  23192814.780   121879087.192 8  23192814.460    94970735.96546
  21914389.400   115160937.344 9  21914390.180    89735824.34048
  21156265.340   111176988.356 9  21156263.400    86631446.11748
  20624578.940   108382976.836 9  20624574.960    84454304.85049
  22573084.260   118622439.257 8  22573086.440    92433110.05347
  23794545.180   125041176.354 8  23794545.200    97434691.47945
 16  1 15  0  0 30.0000000  0  8G03G06G07G09G16G23G26G32
  21144766.160   111116545.813 9  21144767.680    86584350.06949
  24140213.280   126857682.003 7  24140216.720    98850161.43545
  23192319.520   121876484.620 8  23192319.200    94968707.99046
  21913969.480   115158730.649 9  21913970.260    89734104.83848
  21156233.200   111176819.396 9  21156231.240    86631314.46048
  20624434.400   108382217.363 9  20624430.440    84453713.05049
  22573431.040   118624261.532 8  22573433.200    92434530.00847
  23795196.740   125044600.336 8  23795196.780    97437359.51846
 16  1 15  0  0 31.0000000  0  8G03G06G07G09G16G23G26G32
  21145214.320   111118900.850 9  21145215.840    86586185.16249
  24140321.660   126858251.664 7  24140325.160    98850605.32345
  23191824.280   121873882.184 8  23191823.980    94966680.12346
  21913549.540   115156523.986 9  21913550.340    89732385.36348
  21156201.160   111176651.046 9  21156199.220    86631183.28048
  20624289.920   108381458.050 9  20624285.940    84453121.38049
  22573777.900   118626084.270 8  22573780.080    92435950.31947
  23795848.280   125048024.357 8  23795848.360    97440027.58445
 16  1 15  0  0 32.0000000  0  8G03G06G07G09G16G23G26G32
  21145662.600   111121256.637 9  21145664.120    86588020.84149
  24140430.200   126858822.122 7  24140433.700    98851049.83545
  23191329.140   121871280.211 8  23191328.860    94964652.61146
  21913129.700   115154317.704 9  21913130.500    89730666.18448
  21156169.320   111176483.707 9  21156167.380    86631052.88648
  20624145.520   108380699.259 9  20624141.560    84452530.11449
  22574124.900   118627907.807 8  22574127.080    92437371.25747
  23796499.940   125051448.793 8  23796500.020    97442695.98245
 16  1 15  0  0 33.0000000  0  8G03G06G07G09G16G23G26G32
  21146111.000   111123613.001 9  21146112.520    86589856.96649
  24140538.880   126859393.208 7  24140542.380    98851494.83545
  23190834.060   121868678.535 8  23190833.780    94962625.33547
  21912709.920   115152111.635 9  21912710.700    89728947.17148
  21156137.640   111176317.175 9  21156135.680    86630923.12148
  20624001.200   108379940.821 9  20623997.240    84451939.12449
  22574472.040   118629731.977 8  22574474.220    92438792.68847
  23797151.620   125054873.441 8  23797151.720    97445364.53445
 16  1 15  0  0 34.0000000  0  8G03G06G07G09G16G23G26G32
  21146559.500   111125969.855 9  21146561.000    86591693.47649
  24140647.680   126859964.835 7  24140651.140    98851940.26346
  23190339.040   121866077.119 8  23190338.740    94960598.25846
  21912290.140   115149905.716 9  21912290.920    89727228.27148
  21156106.080   111176151.392 9  21156104.140    86630793.93748
  20623856.920   108379182.664 9  20623852.940    84451348.35249
  22574819.280   118631556.715 8  22574821.440    92440214.56147
  23797803.340   125058298.261 8  23797803.480    97448033.22445
 16  1 15  0  0 35.0000000  0  8G03G06G07G09G16G23G26G32
  21147008.120   111128327.301 9  21147009.620    86593530.44849
  24140756.580   126860537.108 7  24140760.040    98852386.19446
  23189844.040   121863476.005 8  23189843.760    94958571.42047
  21911870.420   115147700.033 9  21911871.200    89725509.55748
  21156074.680   111175986.426 9  21156072.740    86630665.39448
  20623712.720   108378424.875 9  20623708.760    84450757.86349
  22575166.640   118633382.109 8  22575168.800    92441636.94847
  23798455.100   125061723.320 8  23798455.240    97450702.09945
 16  1 15  0  0 36.0000000  0  8G03G06G07G09G16G23G26G32
  21147456.800   111130685.206 9  21147458.320    86595367.77549
  24140865.560   126861109.902 7  24140869.060    98852832.52746
  23189349.120   121860875.104 8  23189348.840    94956544.74846
  21911450.720   115145494.473 9  21911451.500    89723790.94348
  21156043.440   111175822.151 9  21156041.480    86630537.38648
  20623568.560   108377667.325 9  20623564.600    84450167.56249
  22575514.120   118635208.039 8  22575516.280    92443059.74947
  23799106.880   125065148.520 8  23799107.040    97453371.08245
 16  1 15  0  0 37.0000000  0  8G03G06G07G09G16G23G26G32
  21147905.600   111133043.645 9  21147907.100    86597205.51849
  24140974.660   126861683.231 7  24140978.160    98853279.27745
  23188854.220   121858274.445 8  23188853.960    94954518.26047
  21911031.040   115143289.066 9  21911031.820    89722072.44648
  21156012.320   111175658.630 9  21156010.360    86630409.96948
  20623424.460   108376910.069 9  20623420.500    84449577.49249
  22575861.700   118637034.556 8  22575863.860    92444483.01347
  23799758.700   125068573.868 8  23799758.860    97456040.17445
 16  1 15  0  0 38.0000000  0  8G03G06G07G09G16G23G26G32
  21148354.500   111135402.675 9  21148356.000    86599043.72349
  24141083.880   126862257.252 7  24141087.400    98853726.55845
  23188359.400   121855674.130 8  23188359.140    94952492.03746
  21910611.400   115141083.909 9  21910612.200    89720354.14448
  21155981.360   111175495.966 9  21155979.400    86630283.21348
  20623280.440   108376153.199 9  20623276.460    84448987.72449
  22576209.400   118638861.710 8  22576211.560    92445906.76847
  23800410.560   125071999.492 8  23800410.760    97458709.48745
 16  1 15  0  0 39.0000000  0  8G03G06G07G09G16G23G26G32
  21148803.500   111137762.118 9  21148805.000    86600882.25249
  24141193.200   126862831.714 7  24141196.700    98854174.18945
  23187864.600   121853073.946 8  23187864.340    94950465.92646
  21910191.800   115138878.801 9  21910192.580    89718635.88048
  21155950.520   111175333.932 9  21155948.560    86630156.95548
  20623136.440   108375396.516 9  20623132.460    84448398.09949
  22576557.220   118640689.378 8  22576559.360    92447330.92847
  23801062.460   125075425.191 8  23801062.620    97461378.86645
 16  1 15  0  0 40.0000000  0  8G03G06G07G09G16G23G26G32
  21149252.580   111140122.115 9  21149254.080    86602721.21149
  24141302.620   126863406.757 7  24141306.160    98854622.27446
  23187369.860   121850474.065 8  23187369.600    94948440.04446
  21909772.200   115136673.886 9  21909773.000    89716917.76648
  21155919.840   111175172.673 9  21155917.880    86630031.30348
  20622992.520   108374640.153 9  20622988.540    84447808.72549
  22576905.120   118642517.631 8  22576907.280    92448755.54347
  23801714.380   125078851.065 8  23801714.560    97464048.37545
 16  1 15  0  0 41.0000000  0  8G03G06G07G09G16G23G26G32
  21149701.720   111142482.288 9  21149703.220    86604560.30449
  24141412.100   126863982.049 7  24141415.640    98855070.55845
  23186875.100   121847874.083 8  23186874.820    94946414.08546
  21909352.600   115134468.812 9  21909353.380    89715199.52948
  21155889.220   111175011.825 9  21155887.280    86629905.96648
  20622848.580   108373883.757 9  20622844.600    84447219.32749
  22577253.080   118644346.141 8  22577255.220    92450180.34847
  23802366.260   125082276.807 8  23802366.440    97466717.78545
 16  1 15  0  0 42.0000000  0  8G03G06G07G09G16G23G26G32
  21150150.820   111144842.303 9  21150152.300    86606399.27849
  24141521.560   126864557.213 7  24141525.100    98855518.73545
  23186380.260   121845273.655 8  23186379.980    94944387.77546
  21908932.880   115132263.221 9  21908933.660    89713480.88948
  21155858.640   111174851.049 9  21155856.680    86629780.68548
  20622704.580   108373126.974 9  20622700.580    84446629.62449
  22577601.020   118646174.539 8  22577603.160    92451605.07447
  23803018.040   125085702.031 8  23803018.260    97469386.78445
 16  1 15  0  0 43.0000000  0  8G03G06G07G09G16G23G26G32
  21150599.940   111147202.505 9  21150601.440    86608238.39449
  24141631.060   126865132.637 7  24141634.620    98855967.10946
  23185885.400   121842673.159 8  23185885.120    94942361.41446
  21908513.120   115130057.460 9  21908513.920    89711762.11248
  21155828.120   111174690.716 9  21155826.160    86629655.74848
  20622560.560   108372370.170 9  20622556.580    84446039.90749
  22577949.000   118648003.210 8  22577951.160    92453030.01447
  23803669.820   125089127.105 8  23803670.000    97472055.67645
 16  1 15  0  0 44.0000000  0  8G03G06G07G09G16G23G26G32
  21151049.220   111149563.409 9  21151050.700    86610078.05949
  24141740.700   126865708.796 7  24141744.280    98856416.06945
  23185390.620   121840073.109 8  23185390.340    94940335.40146
  21908093.440   115127852.040 9  21908094.240    89710043.60348
  21155797.780   111174531.309 9  21155795.840    86629531.53748
  20622416.640   108371613.834 9  20622412.660    84445450.55449
  22578297.140   118649832.630 8  22578299.280    92454455.53447
  23804321.640   125092552.508 8  23804321.840    97474724.82345
 16  1 15  0  0 45.0000000  0  8G03G06G07G09G16G23G26G32
  21151498.620   111151925.030 9  21151500.100    86611918.28349
  24141850.460   126866285.733 7  24141854.080    98856865.62845
  23184895.920   121837473.509 8  23184895.620    94938309.74346
  21907673.840   115125647.000 9  21907674.640    89708325.39248
  21155767.640   111174372.860 9  21155765.680    86629408.07448
  20622272.800   108370858.007 9  20622268.820    84444861.60049
  22578645.420   118651662.845 8  22578647.560    92455881.67647
  23804973.540   125095978.331 8  23804973.740    97477394.29445
 16  1 15  0  0 46.0000000  0  8G03G06G07G09G16G23G26G32
  21151948.180   111154287.407 9  21151949.640    86613759.09549
  24141960.420   126866863.472 7  24141964.020    98857315.80845
  23184401.340   121834874.418 8  23184401.040    94936284.48246
  21907254.300   115123442.371 9  21907255.120    89706607.50148
  21155737.680   111174215.416 9  21155735.720    86629285.39048
  20622129.080   108370102.727 9  20622125.100    84444273.06849
  22578993.860   118653493.876 8  22578996.020    92457308.45547
  23805625.540   125099404.567 8  23805625.740    97480064.08245
 16  1 15  0  0 47.0000000  0  8G03G06G07G09G16G23G26G32
  21152397.900   111156650.673 9  21152399.360    86615600.60249
  24142070.540   126867442.141 7  24142074.120    98857766.72545
  23183906.860   121832275.919 8  23183906.580    94934259.67946
  21906834.880   115121238.239 9  21906835.680    89704889.99748
  21155707.940   111174059.079 9  21155705.980    86629163.56748
  20621985.480   108369348.078 9  20621981.500    84443685.02849
  22579342.480   118655325.850 8  22579344.620    92458735.96347
  23806277.620   125102831.318 8  23806277.840    97482734.27745
 16  1 15  0  0 48.0000000  0  8G03G06G07G09G16G23G26G32
  21152847.760   111159014.771 9  21152849.240    86617442.75749
  24142180.820   126868021.711 7  24142184.420    98858218.34445
  23183412.480   121829678.000 8  23183412.200    94932235.32946
  21906415.540   115119034.613 9  21906416.360    89703172.88748
  21155678.380   111173903.819 9  21155676.420    86629042.58748
  20621842.000   108368594.056 9  20621838.000    84443097.47749
  22579691.280   118657158.735 8  22579693.420    92460164.18547
  23806929.820   125106258.594 8  23806930.040    97485404.87245
 16  1 15  0  0 49.0000000  0  8G03G06G07G09G16G23G26G32
  21153297.780   111161379.511 9  21153299.220    86619285.40749
  24142291.240   126868601.940 7  24142294.840    98858670.46745
  23182918.180   121827080.465 8  23182917.900    94930211.27147
  21905996.260   115116831.271 9  21905997.060    89701455.99748
  21155649.000   111173749.421 9  21155647.040    86628922.27948
  20621698.580   108367840.448 9  20621694.600    84442510.24749
  22580040.200   118658992.309 8  22580042.340    92461592.94847
  23807582.040   125109686.134 8  23807582.280    97488075.67545
 16  1 15  0  0 50.0000000  0  8G03G06G07G09G16G23G26G32
  21153747.880   111163744.860 9  21153749.340    86621128.53949
  24142401.780   126869182.829 7  24142405.380    98859123.10745
  23182423.940   121824483.266 8  23182423.680    94928187.48446
  21905577.020   115114628.190 9  21905577.840    89699739.31048
  21155619.780   111173595.882 9  21155617.820    86628802.63648
  20621555.260   108367087.235 9  20621551.280    84441923.32649
  22580389.260   118660826.568 8  22580391.400    92463022.24247
  23808234.340   125113113.956 8  23808234.540    97490746.70045
 16  1 15  0  0 51.0000000  0  8G03G06G07G09G16G23G26G32
  21154198.120   111166110.759 9  21154199.560    86622972.09849
  24142512.420   126869764.317 7  24142516.040    98859576.21745
  23181929.760   121821886.354 8  23181929.520    94926163.91647
  21905157.820   115112425.292 9  21905158.640    89698022.77048
  21155590.720   111173443.118 9  21155588.760    86628683.59748
  20621412.000   108366334.339 9  20621408.000    84441336.65649
  22580738.440   118662661.438 8  22580740.580    92464452.01047
  23808886.660   125116541.979 8  23808886.900    97493417.88845
 16  1 15  0  0 52.0000000  0  8G03G06G07G09G16G23G26G32
  21154648.400   111168476.994 9  21154649.840    86624815.91549
  24142623.160   126870346.213 7  24142626.780    98860029.65245
  23181435.580   121819289.510 8  23181435.360    94924140.40546
  21904738.620   115110222.378 9  21904739.440    89696306.21648
  21155561.760   111173290.937 9  21155559.800    86628565.01548
  20621268.740   108365581.581 9  20621264.760    84440750.09349
  22581087.680   118664496.704 8  22581089.820    92465882.08547
  23809539.020   125119970.001 8  23809539.180    97496089.07145
 16  1 15  0  0 53.0000000  0  8G03G06G07G09G16G23G26G32
  21155098.740   111170843.525 9  21155100.160    86626659.96449
  24142733.940   126870928.423 7  24142737.520    98860483.31945
  23180941.420   121816692.679 8  23180941.200    94922116.90747
  21904319.420   115108019.402 9  21904320.220    89694589.61148
  21155532.900   111173139.269 9  21155530.940    86628446.83448
  20621125.520   108364828.876 9  20621121.520    84440163.56849
  22581437.000   118666332.335 8  22581439.140    92467312.44547
  23810191.320   125123397.961 8  23810191.500    97498760.21245
 16  1 15  0  0 54.0000000  0  8G03G06G07G09G16G23G26G32
  21155549.160   111173210.469 9  21155550.580    86628504.33649
  24142844.820   126871511.107 7  24142848.400    98860937.36445
  23180447.280   121814096.027 8  23180447.060    94920093.54146
  21903900.220   115105816.496 9  21903901.020    89692873.06348
  21155504.160   111172988.265 9  21155502.200    86628329.16948
  20620982.320   108364076.373 9  20620978.340    84439577.20249
  22581786.400   118668168.431 8  22581788.540    92468743.17147
  23810843.660   125126826.015 8  23810843.860    97501431.41945
 16  1 15  0  0 55.0000000  0  8G03G06G07G09G16G23G26G32
  21155999.660   111175577.800 9  21156001.060    86630349.00549
  24142955.780   126872094.237 7  24142959.400    98861391.74345
  23179953.160   121811499.500 8  23179952.960    94918070.27246
  21903481.020   115103613.619 9  21903481.840    89691156.53448
  21155475.540   111172837.877 9  21155473.580    86628211.98548
  20620839.160   108363324.047 9  20620835.160    84438990.97649
  22582135.900   118670004.998 8  22582138.020    92470174.26647
  23811495.980   125130254.098 8  23811496.220    97504102.65045
 16  1 15  0  0 56.0000000  0  8G03G06G07G09G16G23G26G32
  21156450.260   111177945.703 9  21156451.660    86632194.12649
  24143066.880   126872677.974 7  24143070.460    98861846.59945
  23179459.100   121808903.250 8  23179458.920    94916047.22646
  21903061.860   115101410.961 9  21903062.680    89689440.17948
  21155447.080   111172688.295 9  21155445.120    86628095.42648
  20620696.060   108362572.062 9  20620692.060    84438405.00949
  22582485.500   118671842.182 8  22582487.620    92471605.83847
  23812148.360   125133682.399 8  23812148.600    97506774.05044
 16  1 15  0  0 57.0000000  0  8G03G06G07G09G16G23G26G32
  21156900.980   111180314.150 9  21156902.360    86634039.66949
  24143178.080   126873262.305 7  24143181.660    98862301.92245
  23178965.100   121806307.291 8  23178964.920    94914024.40346
  21902642.740   115099208.483 9  21902643.580    89687723.96948
  21155418.760   111172539.491 9  21155416.820    86627979.47448
  20620553.020   108361820.405 9  20620549.040    84437819.30349
  22582835.240   118673679.991 8  22582837.340    92473037.89647
  23812800.780   125137110.923 8  23812801.040    97509445.62545
 16  1 15  0  0 58.0000000  0  8G03G06G07G09G16G23G26G32
  21157351.800   111182683.212 9  21157353.180    86635885.68849
  24143289.400   126873847.293 7  24143293.020    98862757.75345
  23178471.180   121803711.695 8  23178471.000    94912001.85746
  21902223.680   115097006.277 9  21902224.500    89686007.96648
  21155390.620   111172391.554 9  21155388.660    86627864.19948
  20620410.060   108361069.150 9  20620406.080    84437233.90549
  22583185.080   118675518.465 8  22583187.200    92474470.47147
  23813453.240   125140539.708 8  23813453.500    97512117.41545
 16  1 15  0  0 59.0000000  0  8G03G06G07G09G16G23G26G32
  21157802.740   111185052.844 9  21157804.100    86637732.15649
  24143400.820   126874432.896 7  24143404.420    98863214.06646
  23177977.300   121801116.391 8  23177977.120    94909979.53846
  21901804.660   115094804.301 9  21901805.480    89684292.13948
  21155362.620   111172244.426 9  21155360.660    86627749.55848
  20620267.180   108360318.248 9  20620263.180    84436648.78949
  22583535.060   118677357.583 8  22583537.180    92475903.54847
  23814105.760   125143968.726 8  23814106.020    97514789.37845
 16  1 15  0  1  0.0000000  0  8G03G06G07G09G16G23G26G32
  21158253.740   111187422.863 9  21158255.100    86639578.92249
  24143512.360   126875018.948 7  24143515.940    98863670.73745
  23177483.460   121798521.213 8  23177483.280    94907957.32746
  21901385.620   115092602.344 9  21901386.460    89682576.33048
  21155334.740   111172097.907 9  21155332.780    86627635.38848
  20620124.320   108359567.493 9  20620120.320    84436063.78449
  22583885.100   118679197.135 8  22583887.240    92477336.96447
  23814758.280   125147397.766 8  23814758.520    97517461.35445
 16  1 15  0  1  1.0000000  0  8G03G06G07G09G16G23G26G32
  21158704.860   111189793.391 9  21158706.200    86641426.08949
  24143623.980   126875605.570 7  24143627.560    98864127.83945
  23176989.660   121795926.282 8  23176989.500    94905935.29846
  21900966.640   115090400.558 9  21900967.480    89680860.65048
  21155307.000   111171952.138 9  21155305.040    86627521.80148
  20619981.500   108358817.031 9  20619977.520    84435479.00949
  22584235.280   118681037.288 8  22584237.420    92478770.85047
  23815410.820   125150826.979 8  23815411.100    97520133.45845
 16  1 15  0  1  2.0000000  0  8G03G06G07G09G16G23G26G32
  21159156.060   111192164.436 9  21159157.400    86643273.65749
  24143735.720   126876192.744 7  24143739.280    98864585.37546
  23176495.900   121793331.600 8  23176495.740    94903913.47547
  21900547.700   115088198.929 9  21900548.540    89679145.09848
  21155279.400   111171807.125 9  21155277.440    86627408.80448
  20619838.760   108358066.873 9  20619834.780    84434894.47049
  22584585.580   118682877.998 8  22584587.680    92480205.17247
  23816063.400   125154256.394 8  23816063.680    97522805.72645
 16  1 15  0  1  3.0000000  0  8G03G06G07G09G16G23G26G32
  21159607.380   111194536.094 9  21159608.700    86645121.70049
  24143847.600   126876780.599 7  24143851.180    98865043.44746
  23176002.220   121790737.294 8  23176002.060    94901891.94246
  21900128.780   115085997.569 9  21900129.620    89677429.75648
  21155251.980   111171662.980 9  21155250.020    86627296.48348
  20619696.080   108357317.123 9  20619692.100    84434310.25049
  22584935.980   118684719.396 8  22584938.100    92481640.02847
  23816716.040   125157686.077 8  23816716.320    97525478.20445
 16  1 15  0  1  4.0000000  0  8G03G06G07G09G16G23G26G32
  21160058.800   111196908.223 9  21160060.100    86646970.11149
  24143959.560   126877368.932 7  24143963.120    98865501.88845
  23175508.580   121788143.164 8  23175508.420    94899870.54246
  21899709.900   115083796.316 9  21899710.740    89675714.49648
  21155224.680   111171519.522 9  21155222.720    86627184.69648
  20619553.460   108356567.606 9  20619549.480    84433726.21249
  22585286.500   118686561.321 8  22585288.600    92483075.29547
  23817368.700   125161115.870 8  23817368.980    97528150.76245
 16  1 15  0  1  5.0000000  0  8G03G06G07G09G16G23G26G32
  21160510.300   111199280.808 9  21160511.600    86648818.87949
  24144071.620   126877957.795 7  24144075.160    98865960.74946
  23175014.960   121785549.231 8  23175014.800    94897849.29846
  21899291.040   115081595.173 9  21899291.880    89673999.32048
  21155197.500   111171376.759 9  21155195.560    86627073.45248
  20619410.880   108355818.335 9  20619406.880    84433142.35949
  22585637.100   118688403.768 8  22585639.220    92484510.96847
  23818021.360   125164545.777 8  23818021.660    97530823.41245
 16  1 15  0  1  6.0000000  0  8G03G06G07G09G16G23G26G32
  21160961.840   111201653.709 9  21160963.140    86650667.89749
  24144183.740   126878547.027 7  24144187.300    98866419.88946
  23174521.360   121782955.364 8  23174521.180    94895828.10047
  21898872.160   115079394.002 9  21898873.020    89672284.11748
  21155170.460   111171234.558 9  21155168.500    86626962.64848
  20619268.320   108355069.159 9  20619264.320    84432558.58749
  22585987.780   118690246.611 8  22585989.900    92485946.94647
  23818674.040   125167975.665 8  23818674.340    97533496.05045
 16  1 15  0  1  7.0000000  0  8G03G06G07G09G16G23G26G32
  21161413.480   111204027.046 9  21161414.780    86652517.24649
  24144295.960   126879136.731 7  24144299.520    98866879.39846
  23174027.800   121780361.647 8  23174027.620    94893807.02247
  21898453.300   115077192.899 9  21898454.160    89670568.97248
  21155143.520   111171093.016 9  21155141.560    86626852.35348
  20619125.800   108354320.198 9  20619121.800    84431974.98149
  22586338.560   118692089.944 8  22586340.680    92487383.30947
  23819326.760   125171405.634 8  23819327.040    97536168.75645
 16  1 15  0  1  8.0000000  0  8G03G06G07G09G16G23G26G32
  21161865.200   111206400.782 9  21161866.480    86654366.90749
  24144408.280   126879726.898 7  24144411.800    98867339.26046
  23173534.260   121777768.082 8  23173534.080    94891786.06646
  21898034.460   115074991.848 9  21898035.320    89668853.86748
  21155116.700   111170952.113 9  21155114.760    86626742.55948
  20618983.320   108353571.408 9  20618979.320    84431391.50849
  22586689.420   118693933.725 8  22586691.540    92488820.02047
  23819979.480   125174835.680 8  23819979.720    97538841.52545
 16  1 15  0  1  9.0000000  0  8G03G06G07G09G16G23G26G32
  21162317.000   111208774.920 9  21162318.280    86656216.88949
  24144520.680   126880317.503 7  24144524.180    98867799.47345
  23173040.740   121775174.651 8  23173040.560    94889765.21346
  21897615.640   115072790.847 9  21897616.480    89667138.80848
  21155090.020   111170811.843 9  21155088.060    86626633.25748
  20618840.860   108352822.812 9  20618836.860    84430808.18549
  22587040.380   118695778.001 8  22587042.500    92490257.11847
  23820632.200   125178265.763 8  23820632.460    97541514.31045
 16  1 15  0  1 10.0000000  0  8G03G06G07G09G16G23G26G32
  21162768.900   111211149.613 9  21162770.160    86658067.29949
  24144633.160   126880908.705 7  24144636.720    98868260.15345
  23172547.280   121772581.512 8  23172547.100    94887744.58746
  21897196.840   115070590.054 9  21897197.680    89665423.90648
  21155063.480   111170672.377 9  21155061.520    86626524.58248
  20618698.460   108352074.550 9  20618694.480    84430225.12249
  22587391.460   118697622.876 8  22587393.580    92491694.68547
  23821284.960   125181696.079 8  23821285.260    97544187.27445
 16  1 15  0  1 11.0000000  0  8G03G06G07G09G16G23G26G32
  21163220.860   111213524.729 9  21163222.120    86659918.03849
  24144745.760   126881500.391 7  24144749.320    98868721.21145
  23172053.860   121769988.538 8  23172053.660    94885724.08846
  21896778.040   115068389.329 9  21896778.900    89663709.06048
  21155037.060   111170533.554 9  21155035.100    86626416.41148
  20618556.120   108351326.496 9  20618552.120    84429642.22449
  22587742.620   118699468.247 8  22587744.720    92493132.63547
  23821937.740   125185126.458 8  23821938.020    97546860.29745
 16  1 15  0  1 12.0000000  0  8G03G06G07G09G16G23G26G32
  21163672.940   111215900.352 9  21163674.200    86661769.17349
  24144858.460   126882092.630 7  24144862.040    98869182.69945
  23171560.480   121767395.798 8  23171560.300    94883703.77146
  21896359.280   115066188.757 9  21896360.160    89661994.32848
  21155010.780   111170395.483 9  21155008.840    86626308.82648
  20618413.820   108350578.731 9  20618409.820    84429059.55049
  22588093.880   118701314.181 8  22588096.000    92494571.02447
  23822590.560   125188556.998 8  23822590.840    97549533.44945
 16  1 15  0  1 13.0000000  0  8G03G06G07G09G16G23G26G32
  21164125.120   111218276.513 9  21164126.360    86663620.72549
  24144971.260   126882685.456 7  24144974.840    98869644.63946
  23171067.140   121764803.339 8  23171066.960    94881683.67646
  21895940.560   115063988.371 9  21895941.440    89660279.74448
  21154984.640   111170258.190 9  21154982.720    86626201.84448
  20618271.580   108349831.281 9  20618267.600    84428477.12249
  22588445.280   118703160.709 8  22588447.380    92496009.87547
  23823243.420   125191987.756 8  23823243.700    97552206.77145
 16  1 15  0  1 14.0000000  0  8G03G06G07G09G16G23G26G32
  21164577.420   111220653.271 9  21164578.640    86665472.74549
  24145084.180   126883278.928 7  24145087.740    98870107.09345
  23170573.880   121762211.212 8  23170573.700    94879663.83446
  21895521.900   115061788.248 9  21895522.760    89658565.36448
  21154958.680   111170121.733 9  21154956.760    86626095.51148
  20618129.420   108349084.220 9  20618125.440    84427894.99249
  22588796.800   118705007.893 8  22588798.900    92497449.24447
  23823896.320   125195418.745 8  23823896.620    97554880.26245
 16  1 15  0  1 15.0000000  0  8G03G06G07G09G16G23G26G32
  21165029.820   111223030.610 9  21165031.040    86667325.21249
  24145197.240   126883873.031 7  24145200.800    98870570.02845
  23170080.680   121759619.394 8  23170080.500    94877644.23846
  21895103.260   115059588.341 9  21895104.140    89656851.14948
  21154932.860   111169986.090 9  21154930.940    86625989.81848
  20617987.340   108348337.516 9  20617983.340    84427313.14549
  22589148.420   118706855.739 8  22589150.520    92498889.12247
  23824549.260   125198849.970 8  23824549.560    97557553.94545
 16  1 15  0  1 16.0000000  0  8G03G06G07G09G16G23G26G32
  21165482.340   111225408.511 9  21165483.540    86669178.12249
  24145310.420   126884467.749 7  24145313.940    98871033.44545
  23169587.540   121757027.897 8  23169587.340    94875624.89146
  21894684.680   115057388.659 9  21894685.560    89655137.10948
  21154907.200   111169851.254 9  21154905.280    86625884.75248
  20617845.300   108347591.156 9  20617841.320    84426731.56649
  22589500.160   118708704.201 8  22589502.280    92500329.47547
  23825202.260   125202281.438 8  23825202.560    97560227.81145
 16  1 15  0  1 17.0000000  0  8G03G06G07G09G16G23G26G32
  21165934.920   111227786.787 9  21165936.100    86671031.32549
  24145423.660   126885062.876 7  24145427.200    98871497.18445
  23169094.420   121754436.497 8  23169094.200    94873605.61946
  21894266.100   115055188.988 9  21894266.980    89653423.08248
  21154881.660   111169717.030 9  21154879.740    86625780.16048
  20617703.300   108346844.952 9  20617699.320    84426150.11049
  22589852.000   118710553.119 8  22589854.120    92501770.19547
  23825855.260   125205712.907 8  23825855.560    97562901.67845
 16  1 15  0  1 18.0000000  0  8G03G06G07G09G16G23G26G32
  21166387.580   111230165.511 9  21166388.760    86672884.87549
  24145537.020   126885658.501 7  24145540.540    98871961.29746
  23168601.320   121751845.276 8  23168601.100    94871586.48746
  21893847.540   115052989.417 9  21893848.420    89651709.13248
  21154856.240   111169583.489 9  21154854.340    86625676.10448
  20617561.360   108346098.979 9  20617557.360    84425568.83049
  22590203.940   118712402.532 8  22590206.060    92503211.29647
  23826508.260   125209144.482 8  23826508.560    97565575.63045
 16  1 15  0  1 19.0000000  0  8G03G06G07G09G16G23G26G32
  21166840.320   111232544.681 9  21166841.500    86674738.77249
  24145650.480   126886254.634 7  24145653.960    98872425.81145
  23168108.280   121749254.273 8  23168108.020    94869567.52246
  21893429.000   115050789.950 9  21893429.880    89649995.26448
  21154830.960   111169450.644 9  21154829.060    86625572.58948
  20617419.440   108345353.247 9  20617415.460    84424987.74149
  22590555.960   118714252.483 8  22590558.100    92504652.82047
  23827161.300   125212576.199 8  23827161.600    97568249.68545
 16  1 15  0  1 20.0000000  0  8G03G06G07G09G16G23G26G32
  21167293.180   111234924.376 9  21167294.340    86676593.08249
  24145764.040   126886851.323 7  24145767.520    98872890.76446
  23167615.280   121746663.514 8  23167615.020    94867548.74746
  21893010.480   115048590.655 9  21893011.380    89648281.52648
  21154805.820   111169318.553 9  21154803.920    86625469.66148
  20617277.580   108344607.810 9  20617273.600    84424406.88049
  22590908.100   118716103.004 8  22590910.240    92506094.78147
  23827814.380   125216008.061 8  23827814.640    97570923.86545
 16  1 15  0  1 21.0000000  0  8G03G06G07G09G16G23G26G32
  21167746.120   111237304.600 9  21167747.280    86678447.80249
  24145877.700   126887448.618 7  24145881.200    98873356.18945
  23167122.320   121744073.018 8  23167122.060    94865530.17446
  21892592.000   115046391.520 9  21892592.900    89646567.91648
  21154780.840   111169187.233 9  21154778.940    86625367.33448
  20617135.800   108343862.682 9  20617131.820    84423826.26249
  22591260.360   118717954.122 8  22591262.480    92507537.21247
  23828467.480   125219440.132 8  23828467.760    97573598.21245
 16  1 15  0  1 22.0000000  0  8G03G06G07G09G16G23G26G32
  21168199.180   111239685.310 9  21168200.320    86680302.90049
  24145991.460   126888046.433 7  24145994.960    98873822.02445
  23166629.400   121741482.750 8  23166629.140    94863511.78246
  21892173.560   115044192.534 9  21892174.440    89644854.42348
  21154755.980   111169056.632 9  21154754.100    86625265.56548
  20616994.060   108343117.831 9  20616990.080    84423245.85649
  22591612.740   118719805.784 8  22591614.860    92508980.06647
  23829120.620   125222872.314 8  23829120.880    97576272.64045
 16  1 15  0  1 23.0000000  0  8G03G06G07G09G16G23G26G32
  21168652.300   111242066.500 9  21168653.460    86682158.37149
  24146105.340   126888644.777 7  24146108.840    98874288.26345
  23166136.540   121738892.698 8  23166136.280    94861493.56846
  21891755.120   115041993.673 9  21891756.020    89643141.02648
  21154731.260   111168926.746 9  21154729.380    86625164.35548
  20616852.360   108342373.232 9  20616848.380    84422665.64749
  22591965.180   118721657.987 8  22591967.300    92510423.33947
  23829773.780   125226304.661 8  23829774.040    97578947.20045
 16  1 15  0  1 24.0000000  0  8G03G06G07G09G16G23G26G32
  21169105.520   111244448.143 9  21169106.660    86684014.19749
  24146219.300   126889243.599 7  24146222.800    98874754.88246
  23165643.720   121736302.841 8  23165643.440    94859475.49946
  21891336.720   115039794.932 9  21891337.620    89641427.72348
  21154706.660   111168797.556 9  21154704.800    86625063.68948
  20616710.720   108341628.877 9  20616706.740    84422085.63049
  22592317.760   118723510.720 8  22592319.880    92511867.02747
  23830426.960   125229737.122 8  23830427.240    97581621.84945
 16  1 15  0  1 25.0000000  0  8G03G06G07G09G16G23G26G32
  21169558.860   111246830.395 9  21169560.000    86685870.49949
  24146333.380   126889843.109 7  24146336.860    98875222.03345
  23165150.960   121733713.338 8  23165150.680    94857457.70946
  21890918.360   115037596.424 9  21890919.260    89639714.60548
  21154682.240   111168669.210 9  21154680.380    86624963.67748
  20616569.160   108340884.909 9  20616565.160    84421505.91449
  22592670.420   118725364.103 8  22592672.560    92513311.22147
  23831080.220   125233169.858 8  23831080.480    97584296.70045
 16  1 15  0  1 26.0000000  0  8G03G06G07G09G16G23G26G32
  21170012.300   111249213.178 9  21170013.420    86687727.21149
  24146447.560   126890443.179 7  24146451.020    98875689.62045
  23164658.260   121731124.103 8  23164657.960    94855440.11946
  21890500.020   115035398.127 9  21890500.920    89638001.64448
  21154657.960   111168541.630 9  21154656.100    86624864.26348
  20616427.640   108340141.258 9  20616423.660    84420926.44449
  22593023.220   118727218.106 8  22593025.340    92514755.89747
  23831733.480   125236602.763 8  23831733.760    97586971.68845
 16  1 15  0  1 27.0000000  0  8G03G06G07G09G16G23G26G32
  21170465.820   111251596.407 9  21170466.940    86689584.27149
  24146561.860   126891043.769 7  24146565.300    98876157.61046
  23164165.580   121728535.052 8  23164165.280    94853422.67946
  21890081.720   115033199.909 9  21890082.620    89636288.74748
  21154633.820   111168414.748 9  21154631.960    86624765.39748
  20616286.160   108339397.849 9  20616282.180    84420347.16349
  22593376.140   118729072.611 8  22593378.260    92516200.96347
  23832386.780   125240035.785 8  23832387.080    97589646.76545
 16  1 15  0  1 28.0000000  0  8G03G06G07G09G16G23G26G32
  21170919.440   111253980.146 9  21170920.560    86691441.73049
  24146676.240   126891644.916 7  24146679.700    98876626.03245
  23163672.940   121725946.225 8  23163672.640    94851405.41346
  21889663.440   115031001.865 9  21889664.340    89634575.98348
  21154609.820   111168288.611 9  21154607.960    86624667.10748
  20616144.760   108338654.722 9  20616140.780    84419768.10649
  22593729.140   118730927.677 8  22593731.260    92517646.47047
  23833040.100   125243468.971 8  23833040.420    97592321.97745
 16  1 15  0  1 29.0000000  0  8G03G06G07G09G16G23G26G32
  21171373.120   111256364.280 9  21171374.240    86693299.49849
  24146790.720   126892246.510 7  24146794.200    98877094.80745
  23163180.340   121723357.560 8  23163180.020    94849388.27046
  21889245.180   115028803.854 9  21889246.080    89632863.24948
  21154585.940   111168163.110 9  21154584.100    86624569.31448
  20616003.380   108337911.773 9  20615999.400    84419189.18549
  22594082.240   118732783.215 8  22594084.360    92519092.34147
  23833693.440   125246902.230 8  23833693.760    97594997.24345
 16  1 15  0  1 30.0000000  0  8G03G06G07G09G16G23G26G32
  21171826.920   111258748.915 9  21171828.020    86695157.65649
  24146905.300   126892848.640 7  24146908.780    98877563.99746
  23162687.780   121720769.119 8  23162687.460    94847371.30046
  21888826.940   115026606.001 9  21888827.840    89631150.63948
  21154562.180   111168038.335 9  21154560.340    86624472.08648
  20615862.060   108337169.102 9  20615858.080    84418610.48149
  22594435.440   118734639.320 8  22594437.560    92520538.65947
  23834346.800   125250335.608 8  23834347.140    97597672.59045
 16  1 15  0  1 31.0000000  0  8G03G06G07G09G16G23G26G32
  21172280.820   111261134.176 9  21172281.920    86697016.30049
  24147020.000   126893451.434 7  24147023.500    98878033.71145
  23162195.280   121718181.035 8  23162194.960    94845354.61646
  21888408.740   115024408.422 9  21888409.660    89629438.23948
  21154538.600   111167914.431 9  21154536.780    86624375.54048
  20615720.800   108336426.841 9  20615716.840    84418032.09449
  22594788.780   118736496.105 8  22594790.900    92521985.50247
  23835000.200   125253769.269 8  23835000.540    97600348.17045
 16  1 15  0  1 32.0000000  0  8G03G06G07G09G16G23G26G32
  21172734.840   111263520.104 9  21172735.960    86698875.46149
  24147134.820   126894054.959 7  24147138.340    98878503.99045
  23161702.860   121715593.366 8  23161702.560    94843338.25046
  21887990.640   115022211.162 9  21887991.520    89627726.09348
  21154515.200   111167791.435 9  21154513.380    86624279.70348
  20615579.640   108335685.038 9  20615575.680    84417454.06549
  22595142.260   118738353.621 8  22595144.360    92523432.91747
  23835653.680   125257203.279 8  23835654.000    97603024.02745
 16  1 15  0  1 33.0000000  0  8G03G06G07G09G16G23G26G32
  21173188.960   111265906.468 9  21173190.080    86700734.96649
  24147249.780   126894658.971 7  24147253.280    98878974.65446
  23161210.500   121713005.884 8  23161210.160    94841322.03446
  21887572.520   115020013.987 9  21887573.420    89626014.00748
  21154491.920   111167669.121 9  21154490.100    86624184.39248
  20615438.520   108334943.458 9  20615434.560    84416876.20849
  22595495.820   118740211.646 8  22595497.940    92524880.72947
  23836307.160   125260637.361 8  23836307.500    97605699.93146
 16  1 15  0  1 34.0000000  0  8G03G06G07G09G16G23G26G32
  21173643.160   111268293.205 9  21173644.260    86702594.76149
  24147364.800   126895263.399 7  24147368.280    98879445.63646
  23160718.140   121710418.510 8  23160717.800    94839305.89846
  21887154.400   115017816.823 9  21887155.320    89624301.93348
  21154468.760   111167547.420 9  21154466.940    86624089.55948
  20615297.440   108334202.035 9  20615293.460    84416298.47549
  22595849.480   118742070.092 8  22595851.580    92526328.86547
  23836960.680   125264071.506 8  23836961.000    97608375.88745
 16  1 15  0  1 35.0000000  0  8G03G06G07G09G16G23G26G32
  21174097.400   111270680.318 9  21174098.500    86704454.84749
  24147479.900   126895868.262 7  24147483.400    98879916.94946
  23160225.780   121707831.222 8  23160225.460    94837289.83646
  21886736.300   115015619.703 9  21886737.220    89622589.88948
  21154445.720   111167426.318 9  21154443.900    86623995.19248
  20615156.380   108333460.763 9  20615152.400    84415720.86249
  22596203.220   118743928.977 8  22596205.320    92527777.34947
  23837614.180   125267505.656 8  23837614.500    97611051.84845
 16  1 15  0  1 36.0000000  0  8G03G06G07G09G16G23G26G32
  21174551.720   111273067.802 9  21174552.820    86706315.22649
  24147595.080   126896473.550 7  24147598.560    98880388.59846
  23159733.480   121705244.084 8  23159733.140    94835273.88946
  21886318.220   115013422.610 9  21886319.120    89620877.87048
  21154422.800   111167305.848 9  21154420.980    86623901.32248
  20615015.360   108332719.669 9  20615011.380    84415143.38649
  22596557.040   118745788.324 8  22596559.120    92529226.19147
  23838267.700   125270939.855 8  23838268.040    97613727.85045
 16  1 15  0  1 37.0000000  0  8G03G06G07G09G16G23G26G32
  21175006.140   111275455.705 9  21175007.240    86708175.93249
  24147710.360   126897079.280 7  24147713.820    98880860.60345
  23159241.200   121702657.087 8  23159240.840    94833258.04546
  21885900.140   115011225.577 9  21885901.040    89619165.89648
  21154399.980   111167186.026 9  21154398.200    86623807.95448
  20614874.360   108331978.764 9  20614870.400    84414566.05749
  22596910.960   118747648.131 8  22596913.040    92530675.39347
  23838921.220   125274374.113 8  23838921.560    97616403.89145
 16  1 15  0  1 38.0000000  0  8G03G06G07G09G16G23G26G32
  21175460.600   111277843.906 9  21175461.700    86710036.86649
  24147825.680   126897685.390 7  24147829.160    98881332.89345
  23158748.920   121700070.126 8  23158748.580    94831242.22946
  21885482.040   115009028.507 9  21885482.940    89617453.89648
  21154377.280   111167066.747 9  21154375.500    86623715.00748
  20614733.380   108331237.938 9  20614729.420    84413988.79249
  22597264.940   118749508.293 8  22597267.020    92532124.87247
  23839574.740   125277808.326 8  23839575.080    97619079.90545
 16  1 15  0  1 39.0000000  0  8G03G06G07G09G16G23G26G32
  21175915.140   111280232.462 9  21175916.220    86711898.07449
  24147941.120   126898291.882 7  24147944.580    98881805.48446
  23158256.660   121697483.271 8  23158256.300    94829226.49646
  21885063.960   115006831.429 9  21885064.840    89615741.88748
  21154354.700   111166948.051 9  21154352.920    86623622.51748
  20614592.440   108330497.262 9  20614588.480    84413411.63849
  22597619.000   118751368.883 8  22597621.080    92533574.68047
  23840228.260   125281242.531 8  23840228.580    97621755.90546
 16  1 15  0  1 40.0000000  0  8G03G06G07G09G16G23G26G32
  21176369.740   111282621.443 9  21176370.840    86713759.61949
  24148056.620   126898898.844 7  24148060.080    98882278.44145
