     2.11           OBSERVATION DATA    M (MIXED)           RINEX VERSION / TYPE
teqc  2011Oct11                         20160218 00:18:06UTCPGM / RUN BY / DATE
Linux 2.4.21-27.ELsmp|Opteron|gcc|Linux x86_64|=+           COMMENT
teqc  2015Jun23                         20160218 00:18:05UTCCOMMENT
Linux 2.4.21-27.ELsmp|Opteron|gcc -static|Linux x86_64|=+   COMMENT
BIT 2 OF LLI FLAGS DATA COLLECTED UNDER A/S CONDITION       COMMENT
CEBR                                                        MARKER NAME
13408M001                                                   MARKER NUMBER
AUTOMATIC           ESA/ESOC                                OBSERVER / AGENCY
3001288             SEPT POLARX4        2.9.0               REC # / TYPE / VERS
5163                SEPCHOKE_MC     NONE                    ANT # / TYPE
  4846664.9180  -370195.2000  4116929.5260                  APPROX POSITION XYZ
        0.1780        0.0000        0.0000                  ANTENNA: DELTA H/E/N
     1     1                                                WAVELENGTH FACT L1/2
    17    C1    P1    L1    S1    C2    P2    L2    S2    C5# / TYPES OF OBSERV
          L5    S5    C7    L7    S7    C8    L8    S8      # / TYPES OF OBSERV
 SNR is mapped to RINEX snr flag value [0-9]                COMMENT
  L1 & L2: min(max(int(snr_dBHz/6), 0), 9)                  COMMENT
teqc_SBF.bin edited: all SBAS satellites excluded           COMMENT
teqc_SBF.bin edited: all Galileo satellites excluded        COMMENT
teqc_SBF.bin edited: all Compass satellites excluded        COMMENT
teqc_SBF.bin edited: all QZSS satellites excluded           COMMENT
    17                                                      LEAP SECONDS
  2016     2    18     0     0    0.0000000     GPS         TIME OF FIRST OBS
                                                            END OF HEADER
 16  2 18  0  0  0.0000000  0 19G27G26R14G16R24G20G31G08R15G21G10G18
                                R17R02G29R08R18R01G04
  21918746.696    21918746.370   115183849.749 7        47.000    21918747.796
  21918747.819    89753682.447 7        44.500    21918748.861    86013951.821 8
        51.000

  20332542.007    20332541.788   106848264.083 8        51.500    20332543.921
  20332544.095    83258426.178 8        49.250    20332544.184    79789323.620 9
        55.250

  21734317.278                   115856153.880 6        39.750    21734323.471
  21734323.095    90110388.660 6        38.750


  20554527.439    20554526.863   108014807.392 8        50.750
  20554525.529    84167392.42047        45.000


  22481370.469                   120218318.105 6        39.750    22481370.389
  22481371.927    93502928.663 5        31.750


  23703517.213    23703516.382   124562832.286 6        37.250
  23703516.578    97061952.08143        19.250


  23953601.261    23953601.283   125877054.670 6        41.000    23953601.065
  23953601.382    98086038.085 6        38.000


  24551514.249    24551513.977   129019089.833 5        35.750    24551519.333
  24551517.969   100534375.338 6        37.500    24551518.367    96345438.824 7
        43.000

  19590928.294                   104687994.324 8        49.500    19590934.031
  19590933.266    81424025.621 8        48.250


  21623323.120    21623322.401   113631685.560 8        48.000
  21623321.247    88544084.48546        40.000


  23980808.859    23980808.783   126020037.143 6        40.500    23980810.778
  23980811.059    98197492.372 6        37.750    23980810.357    94105931.054 7
        43.000

  22876368.484    22876367.832   120216185.851 7        44.000
  22876366.852    93674966.38244        27.500


  20258139.955                   108405748.282 8        49.250    20258144.091
  20258142.231    84315351.443 5        33.000


  23645328.180                   126176006.873 6        41.500    23645331.100
  23645331.216    98136900.963 6        39.500


  24598404.534    24598404.578   129265747.731 6        38.500    24598402.853
  24598403.041   100726677.810 5        33.000


  24269864.537                   129964048.981 5        35.500    24269867.975
  24269865.887   101083141.030 5        32.500


  21045532.151                   112342593.608 8        49.000    21045535.894
  21045535.952    87377642.860 7        45.000


  22965446.264                   122763453.788 7        43.000    22965448.478
  22965449.976    95482724.103 5        35.500


  20642621.889    20642621.822   108477755.177 8        50.000
  20642620.396    84528138.12447        42.250


 16  2 18  0  0  1.0000000  0 19G27G26R14G16R24G20G31G08R15G21G10G18
                                R17R02G29R08R18R01G04
  21918363.375    21918363.049   115181835.053 7        46.750    21918364.569
  21918364.431    89752112.554 7        44.500    21918365.459    86012447.344 8
        51.000

  20332655.483    20332655.264   106848860.321 8        51.500    20332657.459
  20332657.558    83258890.775 8        49.250    20332657.638    79789768.861 9
        55.250

  21735111.916                   115860389.071 6        39.750    21735117.783
  21735117.519    90113682.701 6        38.500


  20554296.229    20554295.653   108013592.542 8        50.750
  20554294.355    84166445.78647        45.000


  22481963.397                   120221487.167 6        39.500    22481963.755
  22481964.605    93505393.514 5        31.500


  23703751.320    23703750.489   124564063.530 6        37.000
  23703750.918    97062911.49443        19.000


  23954264.072    23954264.094   125880536.808 6        41.000    23954263.889
  23954264.036    98088751.465 6        38.000


  24550994.065    24550993.802   129016355.434 5        35.750    24550998.733
  24550997.660   100532244.652 6        37.250    24550998.089    96343396.912 7
        43.000

  19591215.716                   104689529.886 8        49.500    19591221.364
  19591220.675    81425219.949 8        48.250


  21623607.198    21623606.474   113633178.267 8        48.000
  21623605.306    88545247.63346        40.000


  23980190.613    23980190.533   126016788.887 6        40.500    23980192.545
  23980192.925    98194961.269 6        37.750    23980192.196    94103505.408 7
        43.000

  22876049.559    22876048.907   120214509.815 7        44.000
  22876047.895    93673660.38144        27.500


  20258521.076                   108407787.303 8        49.500    20258525.257
  20258523.410    84316937.349 5        32.750


  23644671.840                   126172504.881 6        41.500    23644675.091
  23644675.019    98134177.182 6        38.750


  24598944.666    24598944.710   129268586.201 6        38.500    24598942.542
  24598943.235   100728889.593 5        32.250


  24270183.453                   129965751.685 5        35.500    24270186.359
  24270183.752   101084465.374 5        32.000


  21045145.481                   112340530.426 8        49.000    21045149.282
  21045149.443    87376038.169 7        45.000


  22965233.514                   122762315.737 7        43.000    22965235.499
  22965237.413    95481838.948 6        36.250


  20642897.654    20642897.587   108479204.656 8        50.250
  20642896.228    84529267.58847        42.250


 16  2 18  0  0  2.0000000  0 19G27G26R14G16R24G20G31G08R15G21G10G18
                                R17R02G29R08R18R01G04
  21917979.987    21917979.661   115179820.578 7        46.750    21917981.181
  21917981.088    89750542.825 7        44.500    21917982.098    86010943.020 8
        51.000

  20332769.022    20332768.799   106849457.092 8        51.500    20332770.972
  20332771.124    83259355.795 8        49.250    20332771.195    79790214.505 9
        55.250

  21735906.148                   115864624.620 6        39.750    21735912.341
  21735911.997    90116977.011 6        38.250


  20554065.140    20554064.564   108012378.126 8        50.750
  20554063.262    84165499.48847        45.000


  22482555.946                   120224656.280 6        39.250    22482557.019
  22482557.113    93507858.384 5        31.500


  23703985.714    23703984.883   124565295.360 6        36.750
  23703985.293    97063871.35443        19.250


  23954926.740    23954926.757   125884018.998 6        41.250    23954926.547
  23954926.691    98091464.856 6        38.000


  24550473.698    24550473.448   129013621.133 6        36.250    24550478.290
  24550477.373   100530114.017 6        37.250    24550477.749    96341355.061 7
        43.000

  19591503.192                   104691066.311 8        49.500    19591508.894
  19591508.245    81426414.936 8        48.250


  21623891.379    21623890.655   113634671.351 8        48.000
  21623889.429    88546411.07546        39.750


  23979572.483    23979572.403   126013540.696 6        40.500    23979574.428
  23979574.799    98192430.209 6        37.750    23979574.025    94101079.813 7
        43.000

  22875730.643    22875729.991   120212834.139 7        44.000
  22875729.006    93672354.65944        27.500


  20258902.107                   108409826.600 8        49.250    20258905.635
  20258904.401    84318523.473 5        33.500


  23644016.188                   126169003.026 6        41.500    23644019.247
  23644018.835    98131453.510 6        39.000


  24599484.887    24599484.940   129271424.670 6        38.750    24599482.548
  24599483.380   100731101.409 5        32.250


  24270502.481                   129967455.158 5        35.500    24270504.784
  24270501.671   101085790.277 5        32.250


  21044759.012                   112338467.618 8        49.000    21044763.059
  21044762.974    87374433.756 7        45.000


  22965020.651                   122761178.445 7        42.750    22965022.945
  22965024.590    95480954.412 6        36.000


  20643173.558    20643173.496   108480654.640 8        50.000
  20643172.154    84530397.44647        42.250


 16  2 18  0  0  3.0000000  0 19G27G26R14G16R24G20G31G08R15G21G10G18
                                R17R02G29R08R18R01G04
  21917596.631    21917596.305   115177806.295 7        47.000    21917597.807
  21917597.793    89748973.254 7        44.500    21917598.835    86009438.850 8
        51.000

  20332882.726    20332882.503   106850054.399 8        51.500    20332884.721
  20332884.792    83259821.226 8        49.250    20332884.873    79790660.546 9
        55.250

  21736700.800                   115868860.504 6        39.750    21736706.967
  21736706.747    90120271.600 6        38.750


  20553834.114    20553833.538   108011164.151 8        50.750
  20553832.249    84164553.53447        45.000


  22483148.749                   120227825.407 6        39.500    22483152.210
  22483150.041    93510323.270 5        31.750


  23704220.112    23704219.276   124566527.811 6        36.500
  23704219.857    97064831.70143        19.000


  23955589.430    23955589.443   125887501.255 6        41.250    23955589.005
  23955589.358    98094178.290 6        38.000


  24549953.433    24549953.179   129010886.882 6        36.250    24549957.753
  24549957.038   100527983.448 6        37.000    24549957.400    96339313.256 7
        42.750

  19591790.901                   104692603.592 8        49.500    19591796.477
  19591795.972    81427610.607 8        48.250


  21624175.622    21624174.898   113636164.824 8        48.000
  21624173.632    88547574.82046        39.750


  23978954.196    23978954.116   126010292.573 6        40.500    23978955.931
  23978956.673    98189899.202 6        37.500    23978955.882    94098654.259 7
        43.000

  22875411.695    22875411.043   120211158.864 7        43.750
  22875410.202    93671049.24944        27.500


  20259283.268                   108411866.165 8        49.250    20259286.711
  20259285.437    84320109.802 5        33.250


  23643359.987                   126165501.347 6        41.250    23643363.112
  23643362.661    98128729.999 6        38.750


  24600024.831    24600024.889   129274263.151 6        38.250    24600022.671
  24600023.530   100733313.198 5        32.250


  24270820.270                   129969159.335 5        35.500    24270822.389
  24270819.796   101087115.766 5        31.750


  21044372.691                   112336405.184 8        48.750    21044376.916
  21044376.639    87372829.646 7        45.000


  22964807.560                   122760041.904 7        42.500    22964810.520
  22964812.202    95480070.397 5        35.750


  20643449.649    20643449.587   108482105.114 8        50.250
  20643448.174    84531527.68547        42.250


 16  2 18  0  0  4.0000000  0 19G27G26R14G16R24G20G31G08R15G21G10G18
                                R17R02G29R08R18R01G04
  21917213.520    21917213.199   115175792.214 7        47.000    21917214.481
  21917214.540    89747403.848 7        44.500    21917215.568    86007934.835 8
        51.000

  20332996.458    20332996.235   106850652.232 8        51.500    20332998.452
  20332998.564    83260287.075 8        49.250    20332998.635    79791106.981 9
        55.250

  21737496.096                   115873096.729 6        39.750    21737501.699
  21737501.462    90123566.422 6        38.250


  20553603.136    20553602.560   108009950.616 8        50.750
  20553601.325    84163607.92247        45.000


  22483741.189                   120230994.554 6        39.250    22483745.961
  22483743.059    93512788.116 5        31.250


  23704454.729    23704453.898   124567760.808 6        36.750
  23704454.514    97065792.48543        18.750


  23956252.196    23956252.209   125890983.547 6        41.250    23956251.686
  23956252.021    98096891.766 6        38.000


  24549433.428    24549433.169   129008152.698 6        36.750    24549437.261
  24549436.755   100525852.916 6        36.750    24549437.077    96337271.508 7
        43.000

  19592078.806                   104694141.734 8        49.500    19592084.338
  19592083.747    81428806.935 8        48.250


  21624459.901    21624459.177   113637658.670 8        48.000
  21624457.902    88548738.85546        39.750


  23978336.285    23978336.209   126007044.508 6        40.500    23978337.519
  23978338.592    98187368.239 6        37.750    23978337.823    94096228.764 7
        43.000

  22875092.954    22875092.297   120209483.967 7        43.750
  22875091.451    93669744.13444        27.250


  20259664.470                   108413906.005 8        49.250    20259667.506
  20259666.379    84321696.351 5        32.750


  23642703.798                   126161999.836 6        41.000    23642706.812
  23642706.280    98126006.593 6        39.000


  24600565.016    24600565.069   129277101.630 6        38.000    24600562.763
  24600563.724   100735525.008 5        32.500


  24271137.608                   129970864.169 5        35.500    24271139.875
  24271138.395   101088441.750 5        33.000


  21043986.338                   112334343.114 8        49.000    21043990.349
  21043990.344    87371225.816 7        45.000


  22964594.581                   122758906.113 7        42.500    22964598.038
  22964599.639    95479187.009 6        36.000


  20643725.683    20643725.616   108483556.079 8        50.000
  20643724.292    84532658.30647        42.250


 16  2 18  0  0  5.0000000  0 19G27G26R14G16R24G20G31G08R15G21G10G18
                                R17R02G29R08R18R01G04
  21916830.391    21916830.070   115173778.358 7        47.000    21916831.299
  21916831.317    89745834.602 7        44.500    21916832.359    86006430.978 8
        51.000

  20333110.314    20333110.095   106851250.602 8        51.250    20333112.291
  20333112.438    83260753.334 8        49.250    20333112.492    79791553.819 9
        55.250

  21738291.012                   115877333.297 6        39.500    21738296.467
  21738296.190    90126861.532 6        38.500


  20553372.302    20553371.726   108008737.533 8        50.750
  20553370.487    84162662.66347        45.000


  22484334.341                   120234163.702 6        39.000    22484337.565
  22484335.486    93515253.015 5        31.000


  23704689.820    23704688.989   124568994.422 6        37.250
  23704689.243    97066753.73843        19.250


  23956914.810    23956914.818   125894465.905 6        41.500    23956914.479
  23956914.676    98099605.288 6        38.250


  24548913.423    24548913.169   129005418.598 6        36.500    24548916.182
  24548916.473   100523722.453 6        36.750    24548916.665    96335229.796 7
        42.750

  19592366.828                   104695680.735 8        49.500    19592372.315
  19592371.733    81430003.936 8        48.250


  21624744.372    21624743.648   113639152.900 8        48.000
  21624742.248    88549903.19046        39.750


  23977718.150    23977718.070   126003796.520 6        40.500    23977719.858
  23977720.529    98184837.350 6        38.000    23977719.652    94093803.326 7
        42.750

  22874774.181    22874773.524   120207809.462 7        43.500
  22874772.799    93668439.32544        27.500


  20260045.671                   108415946.133 8        49.500    20260048.171
  20260047.446    84323283.131 5        31.750


  23642047.579                   126158498.526 6        41.000    23642050.356
  23642050.154    98123283.352 6        39.000


  24601104.688    24601104.741   129279940.113 6        38.000    24601103.261
  24601103.892   100737736.825 5        32.500


  24271456.139                   129972569.739 5        35.750    24271457.087
  24271456.770   101089768.280 5        31.500


  21043600.151                   112332281.429 8        48.750    21043604.171
  21043604.162    87369622.276 7        45.000


  22964381.933                   122757771.095 7        42.250    22964386.727
  22964387.348    95478304.239 6        36.000


  20644001.877    20644001.810   108485007.556 8        50.000
  20644000.500    84533789.32847        42.250


 16  2 18  0  0  6.0000000  0 19G27G26R14G16R24G20G31G08R15G21G10G18
                                R17R02G29R08R18R01G04
  21916447.156    21916446.835   115171764.710 7        47.000    21916448.095
  21916448.126    89744265.526 7        44.750    21916449.163    86004927.279 8
        51.000

  20333224.264    20333224.041   106851849.501 8        51.250    20333226.219
  20333226.406    83261220.009 8        49.250    20333226.456    79792001.045 9
        55.250

  21739085.575                   115881570.224 6        39.500    21739090.963
  21739090.949    90130156.920 6        38.250


  20553141.486    20553140.910   108007524.883 8        50.750
  20553139.733    84161717.74147        45.000


  22484926.317                   120237332.873 6        39.000    22484930.006
  22484927.909    93517717.951 5        32.250


  23704924.835    23704923.999   124570228.625 6        37.000
  23704924.106    97067715.45843        19.250


  23957577.562    23957577.570   125897948.319 6        41.500    23957577.267
  23957577.374    98102318.850 6        38.250


  24548393.012    24548392.762   129002684.552 6        36.500    24548395.896
  24548396.177   100521592.016 6        36.500    24548396.347    96333188.144 7
        42.750

  19592655.073                   104697220.602 8        49.500    19592660.533
  19592659.876    81431201.609 8        48.250


  21625028.713    21625027.994   113640647.512 8        48.000
  21625026.670    88551067.82246        39.750


  23977100.046    23977099.970   126000548.591 6        40.250    23977101.835
  23977102.479    98182306.500 6        37.750    23977101.513    94091377.928 7
        42.750

  22874455.519    22874454.867   120206135.338 7        43.750
  22874454.191    93667134.81544        27.500


  20260426.939                   108417986.515 8        49.500    20260428.451
  20260429.104    84324870.109 5        32.500


  23641390.979                   126154997.352 6        40.500    23641394.226
  23641393.886    98120560.221 6        39.000


  24601644.717    24601644.770   129282778.592 6        37.750    24601642.959
  24601644.068   100739948.604 5        32.000


  24271774.550                   129974275.998 5        35.750    24271774.975
  24271775.502   101091095.373 5        31.250


  21043213.798                   112330220.106 8        48.750    21043218.077
  21043217.952    87368019.028 7        45.000


  22964169.156                   122756636.815 7        42.250    22964175.098
  22964175.376    95477422.033 5        35.500


  20644278.165    20644278.103   108486459.531 8        50.000
  20644276.801    84534920.73647        42.250


 16  2 18  0  0  7.0000000  0 19G27G26R14G16R24G20G31G08R15G21G10G18
                                R17R02G29R08R18R01G04
  21916064.049    21916063.728   115169751.263 7        47.000    21916064.957
  21916064.988    89742696.605 7        44.750    21916066.017    86003423.733 8
        51.000

  20333338.291    20333338.072   106852448.936 8        51.500    20333340.285
  20333340.482    83261687.103 8        49.500    20333340.531    79792448.673 9
        55.250

  21739880.021                   115885807.461 6        39.750    21739886.214
  21739885.825    90133452.549 6        38.250


  20552910.786    20552910.210   108006312.675 8        50.750
  20552909.060    84160773.16447        45.000


  22485518.548                   120240502.066 6        38.750    22485521.213
  22485520.582    93520182.851 5        32.000


  23705159.519    23705158.683   124571463.435 6        37.000
  23705159.054    97068677.64643        19.000


  23958240.310    23958240.314   125901430.775 6        41.500    23958240.275
  23958240.082    98105032.443 6        38.000


  24547872.863    24547872.618   128999950.606 6        36.750    24547875.359
  24547875.819   100519461.654 6        36.500    24547876.083    96331146.563 7
        42.750

  19592943.336                   104698761.331 8        49.500    19592948.895
  19592948.179    81432399.952 8        48.250


  21625313.176    21625312.452   113642142.502 8        48.000
  21625311.163    88552232.75046        40.000


  23976481.818    23976481.738   125997300.747 6        40.250    23976483.714
  23976484.425    98179775.706 6        38.000    23976483.392    94088952.595 7
        42.750

  22874137.117    22874136.465   120204461.584 7        43.750
  22874135.695    93665830.59644        27.500


  20260808.293                   108420027.168 8        49.500    20260809.321
  20260810.627    84326457.243 5        32.500


  23640734.321                   126151496.341 6        40.500    23640737.689
  23640737.854    98117837.218 6        38.750


  24602184.669    24602184.727   129285617.066 6        37.500    24602183.480
  24602184.195   100742160.411 5        32.500


  24272092.831                   129975982.962 5        35.000    24272092.420
  24272094.624   101092423.056 5        32.000


  21042827.772                   112328159.153 8        48.750    21042832.167
  21042831.904    87366416.062 7        45.000


  22963957.219                   122755503.299 7        42.250    22963962.723
  22963963.327    95476540.412 5        35.750


  20644554.645    20644554.583   108487911.998 8        50.250
  20644553.197    84536052.52947        42.250


 16  2 18  0  0  8.0000000  0 19G27G26R14G16R24G20G31G08R15G21G10G18
                                R17R02G29R08R18R01G04
  21915680.988    21915680.667   115167738.038 7        47.000    21915681.775
  21915681.869    89741127.856 7        44.500    21915682.919    86001920.349 8
        50.750

  20333452.492    20333452.273   106853048.905 8        51.250    20333454.544
  20333454.660    83262154.609 8        49.250    20333454.696    79792896.700 9
        55.250

  21740675.084                   115890045.079 6        39.750    21740681.161
  21740680.884    90136748.460 6        38.500


  20552680.171    20552679.595   108005100.913 8        50.750
  20552678.476    84159828.93247        45.000


  22486111.051                   120243671.298 6        38.500    22486112.889
  22486113.059    93522647.799 5        32.000


  23705395.022    23705394.195   124572698.820 6        37.500
  23705394.092    97069640.28043        19.000


  23958903.045    23958903.045   125904913.284 6        41.500    23958902.576
  23958902.795    98107746.112 6        38.000


  24547352.814    24547352.564   128997216.709 6        36.750    24547355.296
  24547355.533   100517331.356 6        36.500    24547355.872    96329105.010 7
        42.750

  19593231.939                   104700302.920 8        49.750    19593237.381
  19593236.653    81433598.968 8        48.500


  21625597.683    21625596.964   113643637.874 8        48.000
  21625595.724    88553397.97346        39.750


  23975863.777    23975863.701   125994052.969 6        40.250    23975865.736
  23975866.366    98177244.945 6        38.000    23975865.360    94086527.297 7
        42.750

  22873818.738    22873818.090   120202788.227 7        44.000
  22873817.271    93664526.68144        27.500


  20261189.503                   108422068.092 8        49.500    20261191.010
  20261192.092    84328044.624 5        32.750


  23640077.820                   126147995.490 6        40.500    23640081.281
  23640081.670    98115114.330 6        38.750


  24602724.864    24602724.917   129288455.558 6        37.500    24602723.791
  24602724.376   100744372.211 5        32.500


  24272411.488                   129977690.668 5        35.000    24272409.883
  24272413.724   101093751.296 5        31.500


  21042441.719                   112326098.562 8        48.750    21042446.114
  21042445.868    87364813.383 7        45.000


  22963745.572                   122754370.535 7        42.250    22963750.929
  22963751.435    95475659.383 5        35.750


  20644831.135    20644831.068   108489364.969 8        50.250
  20644829.690    84537184.71347        42.250


 16  2 18  0  0  9.0000000  0 19G27G26R14G16R24G20G31G08R15G21G10G18
                                R17R02G29R08R18R01G04
  21915297.971    21915297.650   115165725.017 7        47.000    21915298.722
  21915298.789    89739559.263 7        44.750    21915299.849    86000417.117 8
        51.000

  20333566.759    20333566.536   106853649.395 8        51.500    20333568.812
  20333568.928    83262622.521 8        49.250    20333568.959    79793345.121 9
        55.250

  21741470.447                   115894283.032 6        39.750    21741476.001
  21741475.925    90140044.645 6        38.000


  20552449.650    20552449.074   108003889.584 8        50.750
  20552447.973    84158885.04047        45.000


  22486703.156                   120246840.546 6        38.250    22486705.830
  22486705.388    93525112.762 5        30.500


  23705630.515    23705629.688   124573934.790 6        37.500
  23705629.277    97070603.36643        19.250


  23959565.789    23959565.789   125908395.858 6        41.500    23959564.966
  23959565.507    98110459.786 6        38.000


  24546832.666    24546832.416   128994482.883 6        37.000    24546835.554
  24546835.246   100515201.097 6        36.500    24546835.639    96327063.521 7
        43.000

  19593520.569                   104701845.377 8        49.500    19593525.993
  19593525.327    81434798.661 8        48.250


  21625882.239    21625881.515   113645133.614 8        48.000
  21625880.356    88554563.48546        39.750


  23975245.875    23975245.804   125990805.250 6        40.250    23975247.757
  23975248.356    98174714.264 6        38.000    23975247.310    94084102.064 7
        42.750

  22873500.323    22873499.675   120201115.254 7        44.000
  22873498.865    93663223.06744        27.500


  20261570.816                   108424109.283 8        49.250    20261572.766
  20261573.544    84329632.244 5        32.500


  23639421.431                   126144494.846 6        40.250    23639425.638
  23639425.594    98112391.598 6        39.000


  24603265.027    24603265.080   129291294.026 6        37.250    24603263.775
  24603264.517   100746584.029 5        32.500


  24272731.039                   129979399.126 5        34.750    24272730.480
  24272732.452   101095080.051 5        31.250


  21042055.831                   112324038.358 8        48.750    21042059.976
  21042059.909    87363210.997 7        45.000


  22963533.743                   122753238.518 7        42.500    22963538.943
  22963539.752    95474778.920 5        35.500


  20645107.736    20645107.669   108490818.434 8        50.250
  20645106.278    84538317.28347        42.250


 16  2 18  0  0 10.0000000  0 19G27G26R14G16R24G20G31G08R15G21G10G18
                                R17R02G29R08R18R01G04
  21914914.833    21914914.512   115163712.203 7        46.750    21914915.920
  21914915.772    89737990.846 7        44.750    21914916.877    85998914.045 8
        50.750

  20333681.108    20333680.889   106854250.426 8        51.500    20333683.151
  20333683.299    83263090.856 8        49.250    20333683.344    79793793.944 9
        55.250

  21742265.717                   115898521.336 6        40.000    21742270.720
  21742271.069    90143341.092 6        38.500


  20552219.277    20552218.701   108002678.700 8        50.750
  20552217.550    84157941.49547        45.000


  22487296.044                   120250009.815 6        38.500    22487300.100
  22487298.325    93527577.758 5        31.250


  23705865.919    23705865.092   124575171.368 6        37.250
  23705864.551    97071566.93143        18.750


  23960228.608    23960228.608   125911878.481 6        41.500    23960227.732
  23960228.228    98113173.522 6        38.000


  24546312.030    24546311.771   128991749.126 6        36.750    24546315.581
  24546315.062   100513070.876 6        36.750    24546315.518    96325022.078 7
        42.750

  19593809.324                   104703388.698 8        49.500    19593814.722
  19593814.118    81435999.017 8        48.250


  21626166.884    21626166.160   113646629.742 7        47.750
  21626165.064    88555729.29846        39.750


  23974627.910    23974627.843   125987557.610 6        40.250    23974629.855
  23974630.311    98172183.636 6        38.000    23974629.251    94081676.875 7
        42.750

  22873182.176    22873181.533   120199442.664 7        44.000
  22873180.552    93661919.75144        27.500


  20261952.322                   108426150.747 8        49.500    20261955.805
  20261955.192    84331220.014 5        32.500


  23638765.430                   126140994.364 6        40.250    23638769.736
  23638769.692    98109669.010 6        38.750


  24603805.284    24603805.337   129294132.503 6        37.500    24603804.394
  24603804.667   100748795.817 5        32.750


  24273050.371                   129981108.255 5        34.750    24273051.207
  24273051.820   101096409.378 5        31.250


  21041669.814                   112321978.512 8        48.500    21041674.200
  21041674.071    87361608.898 7        45.000


  22963322.145                   122752107.264 7        42.500    22963327.328
  22963327.963    95473899.037 6        36.000


  20645384.404    20645384.337   108492272.406 8        50.250
  20645382.960    84539450.24647        42.250


 16  2 18  0  0 11.0000000  0 19G27G26R14G16R24G20G31G08R15G21G10G18
                                R17R02G29R08R18R01G04
  21914531.799    21914531.478   115161699.601 7        46.750    21914533.046
  21914532.787    89736422.587 7        44.750    21914533.896    85997411.130 8
        50.750

  20333795.617    20333795.398   106854851.987 8        51.500    20333797.638
  20333797.777    83263559.602 8        49.500    20333797.822    79794243.161 9
        55.250

  21743060.914                   115902759.983 6        40.000    21743066.410
  21743066.311    90146637.841 6        38.500


  20551988.997    20551988.421   108001468.262 8        50.750
  20551987.213    84156998.29547        45.000


  22487888.910                   120253179.081 6        38.500    22487892.688
  22487891.030    93530042.725 5        31.500


  23706101.668    23706100.841   124576408.544 6        37.500
  23706099.977    97072530.96443        18.500


  23960891.240    23960891.236   125915361.168 6        41.500    23960890.538
  23960890.981    98115887.300 6        38.250


  24545791.820    24545791.561   128989015.444 6        36.500    24545794.936
  24545794.856   100510940.761 6        36.750    24545795.334    96322980.689 7
        42.750

  19594098.196                   104704932.889 8        49.750    19594103.629
  19594103.079    81437200.054 8        48.250


  21626451.552    21626450.828   113648126.248 7        47.750
  21626449.844    88556895.40746        39.750


  23974009.829    23974009.762   125984310.021 6        40.250    23974012.051
  23974012.302    98169653.063 6        38.250    23974011.242    94079251.735 7
        42.750

  22872864.051    22872863.403   120197770.458 7        44.000
  22872862.325    93660616.73244        27.500


  20262334.024                   108428192.470 8        49.500    20262337.141
  20262336.501    84332808.038 5        33.250


  23638109.282                   126137494.056 6        40.250    23638113.794
  23638113.852    98106946.542 6        38.750


  24604345.241    24604345.290   129296970.984 6        37.500    24604344.351
  24604344.785   100751007.592 5        32.750


  24273369.260                   129982818.091 5        35.000    24273369.886
  24273370.763   101097739.272 5        31.250


  21041284.074                   112319919.032 8        48.500    21041288.447
  21041288.286    87360007.080 7        45.000


  22963110.942                   122750976.734 7        42.250    22963116.205
  22963116.469    95473019.739 5        35.750


  20645661.117    20645661.050   108493726.876 8        50.250
  20645659.740    84540583.60047        42.250


 16  2 18  0  0 12.0000000  0 19G27G26R14G16R24G20G31G08R15G21G10G18
                                R17R02G29R08R18R01G04
  21914148.822    21914148.501   115159687.208 7        46.750    21914150.056
  21914149.846    89734854.485 7        44.750    21914150.959    85995908.370 8
        51.000

  20333910.225    20333910.002   106855454.078 8        51.250    20333912.273
  20333912.349    83264028.769 8        49.250    20333912.385    79794692.775 9
        55.250

  21743855.781                   115906999.002 6        40.000    21743861.607
  21743861.545    90149934.857 6        38.000


  20551758.802    20551758.226   108000258.260 8        50.750
  20551756.964    84156055.43747        45.000


  22488480.859                   120256348.390 6        38.500    22488484.530
  22488483.403    93532507.760 5        30.750


  23706337.143    23706336.312   124577646.301 6        37.250
  23706335.511    97073495.44743        18.500


  23961553.890    23961553.886   125918843.909 6        41.500    23961553.179
  23961553.738    98118601.122 6        38.000


  24545271.488    24545271.229   128986281.818 6        36.500    24545274.565
  24545274.623   100508810.678 6        37.000    24545275.124    96320939.364 7
        42.750

  19594387.317                   104706477.947 8        49.750    19594392.804
  19594392.200    81438401.767 8        48.250


  21626736.399    21626735.675   113649623.136 7        47.750
  21626734.691    88558061.81346        39.750


  23973391.819    23973391.752   125981062.514 6        40.250    23973393.782
  23973394.328    98167122.538 6        38.250    23973393.237    94076826.649 7
        42.750

  22872545.895    22872545.247   120196098.641 7        44.000
  22872544.182    93659314.02144        27.500


  20262715.704                   108430234.464 8        49.500    20262719.062
  20262718.015    84334396.253 5        33.000


  23637453.657                   126133993.898 6        40.250    23637457.624
  23637457.820    98104224.197 6        38.750


  24604885.208    24604885.261   129299809.451 6        37.250    24604884.783
  24604884.903   100753219.423 5        33.000


  24273688.615                   129984528.636 5        34.500    24273689.786
  24273690.247   101099069.692 5        31.000


  21040898.311                   112317859.909 8        48.500    21040902.573
  21040902.559    87358405.542 7        45.000


  22962899.465                   122749846.937 7        42.000    22962905.108
  22962904.930    95472141.034 6        36.000


  20645938.049    20645937.982   108495181.840 8        50.250
  20645936.614    84541717.33747        42.250


 16  2 18  0  0 13.0000000  0 19G27G26R14G16R24G20G31G08R15G21G10G18
                                R17R02G29R08R18R01G04
  21913765.886    21913765.560   115157675.031 7        46.750    21913767.281
  21913766.954    89733286.560 7        45.000    21913768.077    85994405.774 8
        51.000

  20334024.846    20334024.627   106856056.712 8        51.250    20334026.916
  20334027.028    83264498.347 8        49.250    20334027.037    79795142.792 9
        55.250

  21744650.826                   115911238.352 6        40.000    21744656.993
  21744656.818    90153232.131 6        38.000


  20551528.661    20551528.085   107999048.705 8        50.750
  20551526.797    84155112.92647        45.000


  22489073.385                   120259517.685 6        38.500    22489076.349
  22489075.978    93534972.779 5        30.750


  23706572.686    23706571.850   124578884.652 6        37.750
  23706571.143    97074460.40243        18.000


  23962216.535    23962216.522   125922326.693 6        41.250    23962216.267
  23962216.495    98121314.976 6        38.000


  24544751.394    24544751.131   128983548.287 6        36.500    24544754.363
  24544754.452   100506680.627 6        37.000    24544754.810    96318898.073 7
        42.750

  19594676.739                   104708023.876 8        49.750    19594682.118
  19594681.496    81439604.157 8        48.250


  21627021.322    21627020.598   113651120.396 7        47.750
  21627019.618    88559228.50946        39.750


  23972773.702    23972773.640   125977815.074 6        40.000    23972775.858
  23972776.363    98164592.063 6        38.250    23972775.223    94074401.615 7
        42.500

  22872227.824    22872227.176   120194427.199 7        44.000
  22872226.071    93658011.59744        27.250


  20263097.406                   108432276.729 8        49.500    20263099.852
  20263099.870    84335984.660 5        33.500


  23636797.675                   126130493.877 6        40.250    23636801.467
  23636801.968    98101501.973 6        38.750


  24605425.384    24605425.437   129302647.921 6        37.500    24605424.557
  24605425.017   100755431.210 5        33.000


  24274008.765                   129986239.898 5        34.500    24274009.105
  24274009.673   101100400.665 5        31.750


  21040512.580                   112315801.171 8        48.750    21040517.173
  21040516.860    87356804.312 7        45.000


  22962688.324                   122748717.909 7        42.000    22962692.979
  22962693.659    95471262.889 6        36.000


  20646215.057    20646214.990   108496637.305 8        50.250
  20646213.586    84542851.46547        42.250


 16  2 18  0  0 14.0000000  0 19G27G26R14G16R24G20G31G08R15G21G10G18
                                R17R02G29R08R18R01G04
  21913382.914    21913382.588   115155663.052 7        46.750    21913384.528
  21913384.081    89731718.784 7        44.750    21913385.216    85992903.322 8
        51.000

  20334139.646    20334139.423   106856659.860 8        51.250    20334141.582
  20334141.806    83264968.338 8        49.250    20334141.828    79795593.195 9
        55.500

  21745446.301                   115915478.071 6        40.000    21745452.414
  21745452.105    90156529.680 6        38.000


  20551298.628    20551298.052   107997839.586 8        50.750
  20551296.714    84154170.75647        45.000


  22489666.425                   120262687.003 6        38.500    22489669.577
  22489668.602    93537437.830 5        31.250


  23706808.810    23706807.974   124580123.568 6        37.500
  23706806.892    97075425.79543        18.000


  23962879.203    23962879.186   125925809.535 6        41.250    23962879.529
  23962879.248    98124028.876 6        38.000


  24544231.366    24544231.103   128980814.793 6        36.500    24544234.496
  24544234.210   100504550.655 6        36.500    24544234.483    96316856.849 7
        42.750

  19594966.254                   104709570.665 8        49.750    19594971.392
  19594970.994    81440807.220 8        48.250


  21627306.316    21627305.592   113652618.034 7        47.500
  21627304.617    88560395.49946        39.500


  23972155.594    23972155.532   125974567.700 6        39.750    23972158.197
  23972158.403    98162061.640 6        38.250    23972157.231    94071976.640 7
        42.500

  22871909.623    22871908.975   120192756.153 7        43.750
  22871908.045    93656709.48044        27.250


  20263479.050                   108434319.262 8        49.250    20263482.350
  20263481.581    84337573.314 5        32.750


  23636141.992                   126126994.048 6        40.500    23636146.423
  23636146.200    98098779.890 6        38.500


  24605965.556    24605965.605   129305486.398 6        37.500    24605965.051
  24605965.207   100757642.996 5        33.000


  24274329.452                   129987951.865 5        34.250    24274327.779
  24274329.921   101101732.242 5        32.250


  21040126.956                   112313742.824 8        48.750    21040131.540
  21040131.236    87355203.377 7        44.750


  22962477.246                   122747589.614 7        42.250    22962482.500
  22962482.410    95470385.323 6        36.000


  20646492.123    20646492.056   108498093.265 8        50.250
  20646490.652    84543985.98147        42.250


 16  2 18  0  0 15.0000000  0 19G27G26R14G16R24G20G31G08R15G21G10G18
                                R17R02G29R08R18R01G04
  21913000.053    21912999.732   115153651.283 7        47.000    21913001.672
  21913001.252    89730151.171 7        44.750    21913002.383    85991401.027 8
        51.000

  20334254.517    20334254.298   106857263.551 8        51.250    20334256.391
  20334256.691    83265438.745 8        49.250    20334256.713    79796044.001 9
        55.250

  21746241.548                   115919718.131 6        40.000    21746247.459
  21746247.428    90159827.502 6        38.250


  20551068.630    20551068.054   107996630.913 8        51.000
  20551066.711    84153228.93447        44.750


  22490259.791                   120265856.335 6        38.750    22490261.861
  22490261.405    93539902.891 5        31.500


  23707044.554    23707043.714   124581363.103 6        37.250
  23707042.761    97076391.66443        18.000


  23963541.969    23963541.956   125929292.443 6        41.500    23963542.108
  23963542.032    98126742.817 6        38.000


  24543711.218    24543710.959   128978081.394 6        36.750    24543714.134
  24543714.009   100502420.725 6        36.250    24543714.259    96314815.659 7
        42.750

  19595255.984                   104711118.334 8        49.750    19595261.050
  19595260.589    81442010.959 8        48.250


  21627591.351    21627590.627   113654116.044 7        47.500
  21627589.679    88561562.78146        39.500


  23971537.487    23971537.425   125971320.411 6        40.000    23971540.299
  23971540.456    98159531.283 6        38.250    23971539.262    94069551.711 7
        42.500

  22871591.646    22871590.998   120191085.489 7        43.750
  22871590.081    93655407.66744        27.000


  20263860.770                   108436362.086 8        49.250    20263864.754
  20263863.542    84339162.199 5        33.500


  23635486.492                   126123494.442 6        40.750    23635490.360
  23635490.418    98096057.974 6        39.000


  24606505.969    24606506.018   129308324.859 6        37.750    24606505.075
  24606505.312   100759854.785 5        33.000


  24274649.155                   129989664.562 5        34.500    24274648.708
  24274649.687   101103064.327 5        32.500


  21039741.489                   112311684.870 8        48.750    21039745.840
  21039745.715    87353602.739 7        44.750


  22962266.641                   122746462.071 7        42.250    22962271.573
  22962271.587    95469508.346 6        36.000


  20646769.257    20646769.190   108499549.727 8        50.250
  20646767.817    84545120.88547        42.250


 16  2 18  0  0 16.0000000  0 19G27G26R14G16R24G20G31G08R15G21G10G18
                                R17R02G29R08R18R01G04
  21912617.269    21912616.943   115151639.733 7        47.000    21912618.812
  21912618.472    89728583.734 7        44.750    21912619.608    85989898.894 8
        51.000

  20334369.510    20334369.287   106857867.772 8        51.250    20334371.486
  20334371.669    83265909.568 8        49.000    20334371.692    79796495.207 9
        55.500

  21747037.130                   115923958.545 6        40.000    21747043.560
  21747043.055    90163125.593 6        38.500


  20550838.717    20550838.141   107995422.683 8        51.000
  20550836.798    84152287.45547        44.750


  22490852.809                   120269025.717 6        38.500    22490854.383
  22490854.074    93542367.909 5        32.000


  23707280.173    23707279.324   124582603.215 6        37.000
  23707278.746    97077357.97843        18.000


  23964204.704    23964204.687   125932775.390 6        41.250    23964204.954
  23964204.824    98129456.809 6        38.000


  24543190.815    24543190.570   128975348.079 6        36.750    24543193.713
  24543193.838   100500290.854 6        36.250    24543194.066    96312774.543 7
        42.750

  19595545.772                   104712666.865 8        49.750    19595550.740
  19595550.328    81443215.369 8        48.250


  21627876.520    21627875.796   113655614.439 7        47.500
  21627874.816    88562730.36246        39.500


  23970919.777    23970919.724   125968073.180 6        39.750    23970922.245
  23970922.504    98157000.977 6        38.500    23970921.279    94067126.832 7
        42.500

  22871273.803    22871273.151   120189415.211 7        43.500
  22871272.207    93654106.15344        27.250


  20264242.548                   108438405.181 8        49.500    20264246.550
  20264245.151    84340751.269 5        33.250


  23634830.850                   126119995.039 6        40.750    23634834.436
  23634834.628    98093336.213 6        38.750


  24607046.133    24607046.191   129311163.337 6        38.000    24607044.523
  24607045.426   100762066.552 5        33.000


  24274968.992                   129991377.924 5        33.750    24274968.876
  24274969.533   101104396.901 5        32.250


  21039356.196                   112309627.264 8        48.750    21039360.297
  21039360.257    87352002.380 7        45.000


  22962055.742                   122745335.281 7        42.000    22962060.978
  22962060.786    95468631.961 5        35.750


  20647046.529    20647046.462   108501006.689 8        50.250
  20647045.071    84546256.17947        42.250


 16  2 18  0  0 17.0000000  0 19G27G26R14G16R24G20G31G08R15G21G10G18
                                R17R02G29R08R18R01G04
  21912234.529    21912234.212   115149628.390 7        47.000    21912235.969
  21912235.737    89727016.446 7        44.750    21912236.837    85988396.915 8
        51.000

  20334484.578    20334484.359   106858472.528 8        51.250    20334486.554
  20334486.756    83266380.809 8        49.250    20334486.773    79796946.811 9
        55.500

  21747832.614                   115928199.307 6        39.750    21747838.865
  21747838.673    90166423.980 6        38.250


  20550608.871    20550608.295   107994214.889 8        51.000
  20550606.966    84151346.31747        44.750


  22491445.223                   120272195.066 6        38.500    22491447.490
  22491447.213    93544832.974 5        32.000


  23707515.975    23707515.112   124583843.914 6        36.750
  23707514.839    97078324.74943        18.000


  23964867.340    23964867.323   125936258.384 6        41.250    23964867.926
  23964867.640    98132170.826 6        38.000


  24542670.663    24542670.418   128972614.819 6        36.750    24542673.516
  24542673.695   100498161.052 6        36.000    24542674.101    96310733.470 7
        43.000

  19595835.752                   104714216.256 8        49.750    19595840.675
  19595840.282    81444420.454 8        48.250


  21628161.617    21628160.893   113657113.211 7        47.500
  21628160.016    88563898.23646        39.500


  23970301.955    23970301.897   125964826.013 6        40.000    23970304.495
  23970304.584    98154470.727 6        38.500    23970303.341    94064702.010 7
        42.500

  22870955.831    22870955.183   120187745.312 7        43.500
  22870954.418    93652804.93444        27.000


  20264624.411                   108440448.548 8        49.500    20264628.869
  20264627.076    84342340.534 5        32.250


  23634175.193                   126116495.767 6        40.750    23634178.677
  23634178.967    98090614.563 6        39.000


  24607586.345    24607586.403   129314001.784 6        38.000    24607584.485
  24607585.585   100764278.356 5        33.000


  24275288.436                   129993091.963 5        34.000    24275288.355
  24275289.795   101105730.037 5        32.500


  21038970.868                   112307570.017 8        49.250    21038974.843
  21038974.771    87350402.301 7        45.000


  22961845.057                   122744209.239 7        42.000    22961850.642
  22961850.253    95467756.145 5        35.750


  20647323.868    20647323.806   108502464.149 8        50.250
  20647322.414    84547391.86347        42.250


 16  2 18  0  0 18.0000000  0 19G27G26R14G16R24G20G31G08R15G21G10G18
                                R17R02G29R08R18R01G04
  21911851.924    21911851.607   115147617.262 7        47.250    21911853.252
  21911853.033    89725449.335 7        44.750    21911854.146    85986895.100 8
        51.000

  20334599.682    20334599.459   106859077.814 8        51.250    20334601.734
  20334601.945    83266852.459 8        49.250    20334601.958    79797398.808 9
        55.500

  21748628.223                   115932440.424 6        39.500    21748634.626
  21748634.224    90169722.620 6        38.500


  20550379.092    20550378.516   107993007.542 8        51.000
  20550377.214    84150405.52847        45.000


  22492038.285                   120275364.458 6        38.250    22492040.324
  22492040.056    93547298.064 5        32.000


  23707751.442    23707750.584   124585085.210 6        36.250
  23707751.044    97079291.99743        18.500


  23965529.976    23965529.954   125939741.445 6        41.250    23965530.464
  23965530.464    98134884.885 6        38.000


  24542150.685    24542150.444   128969881.631 6        36.500    24542153.457
  24542153.631   100496031.281 6        36.000    24542154.123    96308692.444 7
        43.000

  19596125.938                   104715766.503 8        49.750    19596130.977
  19596130.463    81445626.198 8        48.250


  21628446.889    21628446.165   113658612.362 7        47.500
  21628445.292    88565066.40546        39.500


  23969684.071    23969684.018   125961578.919 6        40.250    23969686.740
  23969686.704    98151940.533 6        38.750    23969685.443    94062277.238 7
        42.250

  22870638.126    22870637.478   120186075.801 7        43.500
  22870636.704    93651504.01744        27.000


  20265006.324                   108442492.182 8        49.500    20265010.585
  20265009.141    84343930.030 5        33.750


  23633519.908                   126112996.644 6        40.750    23633523.034
  23633523.316    98087893.014 6        39.000


  24608126.387    24608126.445   129316840.251 6        38.000    24608124.540
  24608125.779   100766490.113 5        33.000


  24275608.036                   129994806.764 5        34.250    24275608.685
  24275610.111   101107063.783 5        33.000


  21038585.593                   112305513.124 8        49.000    21038589.689
  21038589.452    87348802.490 7        45.000


  22961634.282                   122743083.950 6        41.750    22961640.949
  22961640.028    95466880.913 5        35.500


  20647601.278    20647601.211   108503922.109 8        50.250
  20647599.861    84548527.93447        42.250


 16  2 18  0  0 19.0000000  0 19G27G26R14G16R24G20G31G08R15G21G10G18
                                R17R02G29R08R18R01G04
  21911469.260    21911468.939   115145606.337 7        47.250    21911470.441
  21911470.365    89723882.387 7        45.000    21911471.510    85985393.439 8
        51.000

  20334714.956    20334714.737   106859683.622 8        51.250    20334716.990
  20334717.232    83267324.522 8        49.250    20334717.250    79797851.199 9
        55.500

  21749424.029                   115936681.883 6        39.750    21749430.159
  21749429.949    90173021.553 6        38.250


  20550149.438    20550148.862   107991800.629 8        51.000
  20550147.547    84149465.07647        45.000


  22492630.999                   120278533.859 6        38.500    22492632.582
  22492632.890    93549763.131 5        32.000


  23707987.302    23707986.444   124586327.092 6        36.000
  23707987.333    97080259.70143        18.250


  23966192.966    23966192.944   125943224.546 6        41.500    23966193.105
  23966193.283    98137598.990 6        38.000


  24541630.232    24541630.000   128967148.496 6        36.500    24541633.202
  24541633.550   100493901.564 5        35.750    24541634.257    96306651.486 7
        43.000

  19596416.083                   104717317.603 8        49.750    19596421.195
  19596420.752    81446832.612 8        48.250


  21628732.223    21628731.499   113660111.884 7        47.500
  21628730.636    88566234.86246        39.500


  23969066.302    23969066.253   125958331.910 6        40.000    23969068.936
  23969068.869    98149410.395 6        38.750    23969067.563    94059852.515 7
        42.500

  22870320.301    22870319.649   120184406.662 7        43.500
  22870319.072    93650203.38944        26.750


  20265388.267                   108444536.082 8        49.500    20265392.278
  20265390.941    84345519.727 5        33.500


  23632864.096                   126109497.627 6        41.000    23632867.244
  23632867.579    98085171.568 6        38.750


  24608666.523    24608666.585   129319678.700 6        38.000    24608665.817
  24608665.964   100768701.939 5        33.500


  24275928.222                   129996522.310 5        34.000    24275928.692
  24275930.311   101108398.095 5        31.750


  21038200.385                   112303456.593 8        49.250    21038204.297
  21038204.190    87347202.962 7        44.750


  22961423.812                   122741959.406 6        41.500    22961429.424
  22961429.312    95466006.283 5        35.750


  20647878.783    20647878.716   108505380.556 8        50.250
  20647877.401    84549664.38647        42.250


 16  2 18  0  0 20.0000000  0 19G27G26R14G16R24G20G31G08R15G21G10G18
                                R17R02G29R08R18R01G04
  21911086.722    21911086.401   115143595.627 7        47.250    21911087.853
  21911087.728    89722315.591 7        44.750    21911088.895    85983891.934 8
        51.000

  20334830.301    20334830.078   106860289.971 8        51.250    20334832.381
  20334832.622    83267796.998 8        49.250    20334832.640    79798303.989 9
        55.500

  21750219.790                   115940923.694 6        39.750    21750225.929
  21750225.723    90176320.727 6        38.500


  20549919.852    20549919.276   107990594.165 8        51.000
  20549917.965    84148524.97547        45.000


  22493223.708                   120281703.267 6        38.500    22493225.031
  22493225.733    93552228.246 5        31.500


  23708223.792    23708222.934   124587569.543 6        36.000
  23708223.779    97081227.84343        18.250


  23966855.665    23966855.648   125946707.705 6        41.250    23966855.571
  23966856.108    98140313.144 6        38.000


  24541110.058    24541109.835   128964415.432 6        36.250    24541113.308
  24541113.492   100491771.936 6        36.250    24541114.328    96304610.570 7
        43.000

  19596706.404                   104718869.563 8        49.750    19596711.837
  19596711.211    81448039.690 8        48.250


  21629017.673    21629016.954   113661611.796 7        47.500
  21629016.055    88567403.62546        39.500


  23968448.637    23968448.588   125955084.958 6        40.250    23968450.824
  23968451.043    98146880.302 6        38.750    23968449.728    94057427.850 7
        42.500

  22870002.870    22870002.218   120182737.927 7        43.500
  22870001.510    93648903.07744        26.750


  20265770.278                   108446580.263 8        49.250    20265773.614
  20265773.010    84347109.643 5        32.500


  23632208.493                   126105998.793 6        41.000    23632211.807
  23632211.928    98082450.240 6        39.250


  24609206.673    24609206.731   129322517.177 6        38.000    24609205.949
  24609206.145   100770913.709 5        33.000


  24276248.444                   129998238.595 5        34.000    24276250.085
  24276250.608   101109732.968 5        32.500


  21037815.459                   112301400.439 8        49.000    21037819.013
  21037818.844    87345603.737 7        45.000


  22961212.948                   122740835.635 6        41.250    22961218.667
  22961218.909    95465132.248 5        35.500


  20648156.412    20648156.350   108506839.512 8        50.250
  20648155.035    84550801.23447        42.250


 16  2 18  0  0 21.0000000  0 19G27G26R14G16R24G20G31G08R15G21G10G18
                                R17R02G29R08R18R01G04
  21910704.179    21910703.862   115141585.118 7        47.250    21910705.333
  21910705.149    89720748.973 7        44.750    21910706.325    85982390.585 8
        51.000

  20334945.785    20334945.562   106860896.855 8        51.250    20334947.816
  20334948.106    83268269.895 8        49.250    20334948.120    79798757.184 9
        55.500

  21751015.461                   115945165.848 6        39.750    21751021.672
  21751021.556    90179620.169 6        38.250


  20549690.310    20549689.734   107989388.141 8        51.000
  20549688.463    84147585.21747        45.000


  22493816.180                   120284872.708 6        38.250    22493818.299
  22493818.501    93554693.354 5        32.000


  23708460.323    23708459.478   124588812.596 6        36.250
  23708460.328    97082196.45443        18.000


  23967518.829    23967518.812   125950190.927 6        41.250    23967518.529
  23967518.932    98143027.345 6        38.000


  24540590.146    24540589.923   128961682.439 6        36.750    24540593.151
  24540593.353   100489642.321 6        36.250    24540594.314    96302569.707 7
        43.000

  19596996.853                   104720422.391 8        49.500    19597002.429
  19597001.817    81449247.448 8        48.250


  21629303.191    21629302.467   113663112.087 7        47.500
  21629301.554    88568572.68446        39.500


  23967830.860    23967830.811   125951838.068 6        40.000    23967833.118
  23967833.190    98144350.268 6        38.750    23967831.884    94055003.224 7
        42.500

  22869685.572    22869684.924   120181069.571 7        43.500
  22869684.025    93647603.06344        26.750


  20266152.463                   108448624.709 8        49.250    20266156.251
  20266155.119    84348699.777 5        33.750


  23631552.931                   126102500.159 6        41.000    23631556.280
  23631556.245    98079729.069 6        39.000


  24609746.849    24609746.907   129325355.630 6        37.750    24609745.799
