     2.11           OBSERVATION DATA    M (MIXED)           RINEX VERSION / TYPE
sbf2rin-9.3.3                           20160218 001903 LCL COMMENT             
gfzrnx-1.02-6427    FILE CONVERSION     20160219 043642 UTC PGM / RUN BY / DATE 
NNOR                                                        MARKER NAME         
50181M001                                                   MARKER NUMBER       
AUTOMATIC           ESA/ESOC                                OBSERVER / AGENCY   
3001353             SEPT POLARX4        2.9.0               REC # / TYPE / VERS 
5122                SEPCHOKE_MC     NONE                    ANT # / TYPE        
 -2414151.4460  4907778.5040 -3270645.1870                  APPROX POSITION XYZ 
        0.1121        0.0000        0.0000                  ANTENNA: DELTA H/E/N
                                                            COMMENT             
**********************************************************  COMMENT             
*              WARNING - FORMAT CONVERSION               *  COMMENT             
*  ----------------------------------------------------  *  COMMENT             
*  The data values (observation, loss of lock indicator  *  COMMENT             
*      (LLI), signal strength) are left as they are.     *  COMMENT             
*  The LLI meaning differs between versions 2 and 3 and  *  COMMENT             
*    the Interpretation of bit 1 and 2 has to be used    *  COMMENT             
*                  with caution !!!                      *  COMMENT             
**********************************************************  COMMENT             
                                                            COMMENT             
RINEX 3 -> 2 TYPE CONVERSION DETAILS:                       COMMENT             
-------------------------------------                       COMMENT             
   G C1C -> C1                                              COMMENT             
   G C2L -> C2                                              COMMENT             
   G D1C -> D1                                              COMMENT             
   G D2L -> D2                                              COMMENT             
   G L1C -> L1                                              COMMENT             
   G L2L -> L2                                              COMMENT             
   G S1C -> S1                                              COMMENT             
   G S2L -> S2                                              COMMENT             
-------------------------------------                       COMMENT             
                                                            COMMENT             
     8    C1    C2    D1    D2    L1    L2    S1    S2      # / TYPES OF OBSERV 
    11                                                      # OF SATELLITES     
   G02   900         900         900         900            PRN / # OF OBS      
   G06   900   900   900   900   900   900   900   900      PRN / # OF OBS      
   G12   900   900   900   900   900   900   900   900      PRN / # OF OBS      
   G13   900         900         900         900            PRN / # OF OBS      
   G15   900   900   900   900   900   900   900   900      PRN / # OF OBS      
   G17   314   295   314   295   313   295   314   295      PRN / # OF OBS      
   G19   900         900         900         900            PRN / # OF OBS      
   G24   900   900   900   900   900   900   900   900      PRN / # OF OBS      
   G25   900   900   900   900   900   900   900   900      PRN / # OF OBS      
   G29   900   900   900   900   900   900   900   900      PRN / # OF OBS      
   G32   900   900   900   900   900   900   900   900      PRN / # OF OBS      
     1.000                                                  INTERVAL            
  2016     2    18     0     0    0.0000000     GPS         TIME OF FIRST OBS   
  2016     2    18     0    14   59.0000000     GPS         TIME OF LAST OBS    
                                                            END OF HEADER      
 16 02 18 00 00 00.0000000  0 11G02G06G12G13G15G17G19G24G25G29G32   
  22236841.603 7                      2788.493 7                 116855388.29007
                        45.250                  
  22668215.533 7  22668218.627 7       565.594 7       440.755 7 119122289.04207
  92822578.28707        44.000          42.000  
  21222710.784 8  21222710.086 7       685.429 8       534.103 7 111526100.15208
  86903455.33707        49.000          43.750  
  24191435.230 6                     -3584.832 6                 127126788.69106
                        39.500                  
  22234122.818 7  22234123.466 6     -2662.658 7     -2074.669 6 116841087.77607
  91044985.35106        46.250          41.750  
  24395642.548 5  24395642.727 5     -3678.473 5     -2866.345 5 128199949.52505
  99896049.69205        33.000          30.250  
  22649320.485 7                     -2575.305 7                 119022985.35007
                        47.500                  
  20258122.606 8  20258124.654 8       978.066 8       762.111 8 106457138.45508
  82953622.39308        51.250          49.250  
  23458388.969 6  23458392.596 6      1902.556 6      1482.666 6 123274677.77006
  96058205.19806        41.500          39.250  
  24664574.019 6  24664576.787 5      3535.927 6      2755.320 5 129613207.88006
 100997303.64905        37.750          33.750  
  22869628.296 7  22869631.936 7     -3056.340 7     -2381.597 7 120180675.21807
  93647276.54007        45.750          42.750  
 16 02 18 00 00 01.0000000  0 11G02G06G12G13G15G17G19G24G25G29G32   
  22236311.000 7                      2788.106 7                 116852599.96407
                        45.250                  
  22668107.968 7  22668111.129 7       565.113 7       440.317 7 119121723.68707
  92822137.74507        44.000          42.000  
  21222580.351 8  21222579.917 7       685.351 8       534.132 7 111525414.78308
  86902921.28007        49.000          43.750  
  24192117.309 6                     -3584.900 6                 127130373.59306
                        39.000                  
  22234629.734 7  22234630.284 6     -2662.948 7     -2075.037 6 116843750.56607
  91047060.25806        46.250          41.750  
  24396342.366 5  24396342.375 5     -3678.648 5     -2866.330 5 128203628.17105
  99898916.15305        33.250          30.000  
  22649810.579 7                     -2575.582 7                 119025560.78007
                        47.500                  
  20257936.515 8  20257938.532 8       977.660 8       761.794 8 106456160.56808
  82952860.39908        51.250          49.250  
  23458027.099 6  23458030.332 6      1902.617 6      1482.410 6 123272775.19706
  96056722.66706        41.500          39.500  
  24663901.103 6  24663904.354 5      3535.942 6      2755.413 5 129609672.03006
 100994548.42005        38.000          33.500  
  22870209.996 7  22870213.560 7     -3056.623 7     -2381.699 7 120183731.74807
  93649658.24107        45.750          42.750  
 16 02 18 00 00 02.0000000  0 11G02G06G12G13G15G17G19G24G25G29G32   
  22235780.322 7                      2787.887 7                 116849811.92707
                        45.000                  
  22668000.582 7  22668003.779 7       564.528 7       439.943 7 119121158.86807
  92821697.63407        44.000          42.000  
  21222449.990 8  21222449.493 7       685.193 8       533.943 7 111524729.53508
  86902387.31007        49.000          43.750  
  24192799.258 6                     -3584.861 6                 127133958.48606
                        38.500                  
  22235136.530 7  22235136.901 6     -2663.249 7     -2075.312 6 116846413.64707
  91049135.38806        46.250          41.750  
  24397041.938 5  24397043.078 5     -3678.570 5     -2866.183 5 128207306.88205
  99901782.64305        33.250          30.500  
  22650300.731 7                     -2575.858 7                 119028136.47807
                        47.250                  
  20257750.545 8  20257752.512 8       977.142 8       761.389 8 106455183.15508
  82952098.78408        51.000          49.250  
  23457664.888 6  23457668.220 6      1902.416 6      1482.420 6 123270872.68106
  96055240.19506        41.000          39.500  
  24663228.378 6  24663231.875 5      3535.727 6      2754.792 5 129606136.30006
 100991793.32805        37.750          34.000  
  22870791.723 7  22870795.305 7     -3056.844 7     -2381.919 7 120186788.46807
  93652040.09907        45.500          42.750  
 16 02 18 00 00 03.0000000  0 11G02G06G12G13G15G17G19G24G25G29G32   
  22235249.799 7                      2787.542 7                 116847024.18707
                        45.000                  
  22667893.209 7  22667896.496 7       564.009 7       439.377 7 119120594.63107
  92821257.97607        44.250          42.000  
  21222319.557 8  21222318.922 7       685.030 8       533.769 7 111524044.43308
  86901853.47007        49.000          43.750  
  24193481.145 6                     -3584.895 6                 127137543.40306
                        38.750                  
  22235643.420 7  22235643.621 6     -2663.554 7     -2075.448 6 116849077.05107
  91051210.76506        46.250          41.500  
  24397741.313 5  24397743.393 4     -3678.564 5     -2866.746 4 128210985.69605
  99904649.30804        32.750          29.750  
  22650790.879 7                     -2576.160 7                 119030712.48007
                        47.250                  
  20257564.561 8  20257566.636 8       976.670 8       761.069 8 106454206.21408
  82951337.52708        51.250          49.250  
  23457302.812 6  23457306.269 6      1902.335 6      1482.376 6 123268970.24006
  96053757.76306        41.250          39.500  
  24662555.422 6  24662559.030 5      3535.535 6      2754.965 5 129602600.69206
 100989038.27905        38.000          33.500  
  22871373.338 7  22871377.090 7     -3057.054 7     -2382.085 7 120189845.39607
  93654422.12507        45.750          42.750  
 16 02 18 00 00 04.0000000  0 11G02G06G12G13G15G17G19G24G25G29G32   
  22234719.223 7                      2787.246 7                 116844236.75607
                        45.000                  
  22667785.939 7  22667789.239 7       563.359 7       439.076 7 119120030.97807
  92820818.75307        44.250          42.000  
  21222189.205 8  21222188.480 7       684.909 8       533.647 7 111523359.47008
  86901319.73807        49.000          44.000  
  24194163.144 6                     -3585.073 6                 127141128.33006
                        38.500                  
  22236150.256 7  22236150.614 6     -2663.894 7     -2075.758 6 116851740.78007
  91053286.39206        46.250          41.750  
  24398441.225 5  24398443.765 5     -3678.956 5     -2866.338 5 128214664.62505
  99907515.95305        33.250          30.250  
  22651281.148 7                     -2576.427 7                 119033288.76607
                        47.500                  
  20257378.725 8  20257380.885 8       976.242 8       760.760 8 106453229.75108
  82950576.64308        51.250          49.250  
  23456940.727 6  23456944.268 6      1902.354 6      1482.450 6 123267067.87206
  96052275.39306        41.000          39.750  
  24661882.438 6  24661886.373 5      3535.296 6      2754.957 5 129599065.21406
 100986283.37105        37.750          33.750  
  22871955.306 7  22871959.013 7     -3057.182 7     -2382.208 7 120192902.53207
  93656804.30907        46.000          42.750  
 16 02 18 00 00 05.0000000  0 11G02G06G12G13G15G17G19G24G25G29G32   
  22234188.974 7                      2786.994 7                 116841449.62007
                        45.000                  
  22667678.813 7  22667682.381 7       562.881 7       438.569 7 119119467.87907
  92820379.97607        44.000          42.000  
  21222058.870 8  21222058.289 7       684.812 8       533.622 7 111522674.64408
  86900786.10407        48.750          43.750  
  24194845.361 6                     -3585.089 6                 127144713.27606
                        38.500                  
  22236657.177 7  22236657.298 6     -2664.148 7     -2075.845 6 116854404.81507
  91055362.25806        46.000          41.500  
  24399141.289 5  24399143.838 5     -3679.164 5     -2866.858 5 128218343.61405
  99910382.74405        33.000          30.750  
  22651771.332 7                     -2576.681 7                 119035865.34507
                        47.250                  
  20257193.014 8  20257195.192 8       975.762 8       760.391 8 106452253.76308
  82949816.13308        51.000          49.250  
  23456578.659 6  23456582.161 6      1902.317 6      1482.113 6 123265165.56806
  96050793.10506        41.250          39.500  
  24661209.660 6  24661212.687 5      3535.310 6      2754.707 5 129595529.86306
 100983528.55805        38.000          33.500  
  22872536.975 7  22872540.700 7     -3057.401 7     -2382.250 7 120195959.88607
  93659186.66407        46.000          42.750  
 16 02 18 00 00 06.0000000  0 11G02G06G12G13G15G17G19G24G25G29G32   
  22233658.648 7                      2786.741 7                 116838662.78407
                        45.000                  
  22667571.838 7  22667575.433 7       562.264 7       438.198 7 119118905.35207
  92819941.63807        44.250          42.000  
  21221928.514 8  21221927.896 7       684.594 8       533.482 7 111521989.95908
  86900252.57407        48.750          43.750  
  24195527.449 6                     -3584.833 6                 127148298.20406
                        38.000                  
  22237164.290 7  22237164.322 6     -2664.562 7     -2076.237 6 116857069.16607
  91057438.38606        46.250          41.500  
  24399841.514 5  24399843.812 5     -3679.137 5     -2866.782 5 128222022.69305
  99913249.54605        32.500          30.000  
  22652261.708 7                     -2577.045 7                 119038442.20807
                        47.500                  
  20257007.325 8  20257009.552 8       975.289 8       759.973 8 106451278.22808
  82949055.97708        51.000          49.250  
  23456216.668 6  23456220.120 6      1902.194 6      1482.124 6 123263263.32806
  96049310.84306        41.000          39.500  
  24660536.918 6  24660540.271 5      3535.197 6      2754.465 5 129591994.65306
 100980773.83305        38.000          33.750  
  22873118.903 7  22873122.301 7     -3057.635 7     -2382.587 7 120199017.43007
  93661569.16807        46.000          42.750  
 16 02 18 00 00 07.0000000  0 11G02G06G12G13G15G17G19G24G25G29G32   
  22233128.126 7                      2786.320 7                 116835876.25807
                        45.000                  
  22667465.015 7  22667468.414 7       561.727 7       437.666 7 119118343.39207
  92819503.74707        44.250          42.000  
  21221798.246 8  21221797.696 7       684.528 8       533.323 7 111521305.40708
  86899719.17307        48.750          43.750  
  24196209.881 6                     -3584.754 6                 127151883.12006
                        38.000                  
  22237671.372 7  22237671.690 6     -2664.836 7     -2076.562 6 116859733.83007
  91059514.74406        46.250          41.500  
  24400542.208 5  24400544.332 5     -3679.289 5     -2866.841 5 128225701.85505
  99916116.45805        32.750          30.250  
  22652752.133 7                     -2577.290 7                 119041019.36307
                        47.500                  
  20256821.789 8  20256824.060 8       974.794 8       759.600 8 106450303.15508
  82948296.18508        51.250          49.250  
  23455854.561 6  23455858.710 6      1902.119 6      1482.110 6 123261361.19106
  96047828.64106        41.250          39.750  
  24659864.439 6  24659867.981 5      3535.017 6      2754.593 5 129588459.54906
 100978019.22505        38.500          33.750  
  22873700.831 7  22873704.207 7     -3057.808 7     -2382.647 7 120202075.20207
  93663951.84407        45.750          42.750  
 16 02 18 00 00 08.0000000  0 11G02G06G12G13G15G17G19G24G25G29G32   
  22232597.921 7                      2786.056 7                 116833090.04507
                        45.000                  
  22667358.121 7  22667361.703 7       561.147 7       437.140 7 119117782.01707
  92819066.32407        44.250          42.250  
  21221668.042 8  21221667.630 7       684.369 8       533.300 7 111520620.99708
  86899185.85907        49.000          44.000  
  24196891.853 6                     -3584.909 6                 127155468.10506
                        37.750                  
  22238178.517 7  22238179.232 6     -2665.056 7     -2076.699 6 116862398.79507
  91061591.33606        46.250          41.750  
  24401242.482 5  24401244.450 5     -3679.460 5     -2866.848 5 128229381.12505
  99918983.36505        32.750          31.000  
  22653242.648 7                     -2577.553 7                 119043596.81107
                        47.500                  
  20256636.337 8  20256638.649 8       974.412 8       759.207 8 106449328.55008
  82947536.75208        51.250          49.250  
  23455492.802 6  23455496.916 6      1901.902 6      1482.016 6 123259459.11306
  96046346.50406        41.500          39.500  
  24659191.728 6  24659194.702 5      3534.884 6      2754.478 5 129584924.59206
 100975264.69505        38.000          33.750  
  22874282.616 7  22874286.126 7     -3058.014 7     -2382.991 7 120205133.18807
  93666334.68607        45.750          42.750  
 16 02 18 00 00 09.0000000  0 11G02G06G12G13G15G17G19G24G25G29G32   
  22232067.641 7                      2785.805 7                 116830304.12107
                        45.000                  
  22667251.245 7  22667254.974 7       560.521 7       436.770 7 119117221.20507
  92818629.32007        44.250          42.000  
  21221537.958 8  21221537.394 7       684.180 8       533.170 7 111519936.73408
  86898652.66507        49.000          43.750  
  24197573.963 6                     -3584.877 6                 127159053.04706
                        38.000                  
  22238685.648 7  22238686.337 6     -2665.448 7     -2076.952 6 116865064.08507
  91063668.18306        46.250          41.500  
  24401942.801 5  24401944.911 5     -3679.127 5     -2866.992 5 128233060.43405
  99921850.37005        33.000          31.000  
  22653733.194 7                     -2577.805 7                 119046174.54507
                        47.500                  
  20256450.966 8  20256453.291 8       973.880 8       758.871 8 106448354.40208
  82946777.67608        51.250          49.250  
  23455131.003 6  23455134.920 6      1901.892 6      1481.992 6 123257557.09506
  96044864.42806        41.500          40.000  
  24658518.946 6  24658521.853 5      3534.707 6      2754.410 5 129581389.75006
 100972510.25805        38.000          34.000  
  22874864.495 7  22874868.063 7     -3058.213 7     -2383.083 7 120208191.36907
  93668717.68407        45.750          42.500  
 16 02 18 00 00 10.0000000  0 11G02G06G12G13G15G17G19G24G25G29G32   
  22231537.668 7                      2785.437 7                 116827518.51707
                        45.000                  
  22667144.481 7  22667148.255 7       559.900 7       436.277 7 119116660.96007
  92818192.76607        44.250          42.000  
  21221407.757 8  21221407.060 7       684.070 8       533.047 7 111519252.61008
  86898119.58407        49.000          43.750  
  24198255.827 6                     -3584.939 6                 127162638.01406
                        38.000                  
  22239192.806 7  22239193.575 6     -2665.774 7     -2077.169 6 116867729.71007
  91065745.28906        46.000          41.500  
  24402642.789 5  24402644.989 5     -3679.619 5     -2867.827 5 128236739.86305
  99924717.50605        32.750          30.750  
  22654223.811 7                     -2578.153 7                 119048752.58607
                        47.500                  
  20256265.787 8  20256267.969 8       973.517 8       758.501 8 106447380.70408
  82946018.95208        51.250          49.250  
  23454769.262 6  23454773.005 6      1901.792 6      1481.989 6 123255655.16706
  96043382.38606        41.750          40.000  
  24657846.302 6  24657849.070 5      3534.685 6      2754.275 5 129577855.04606
 100969755.94905        38.000          34.250  
  22875446.490 7  22875449.973 7     -3058.499 7     -2383.251 7 120211249.77407
  93671100.85207        45.750          42.500  
 16 02 18 00 00 11.0000000  0 11G02G06G12G13G15G17G19G24G25G29G32   
  22231007.835 7                      2785.226 7                 116824733.19807
                        45.000                  
  22667038.043 7  22667041.651 7       559.404 7       435.846 7 119116101.29307
  92817756.66407        44.250          42.000  
  21221277.611 8  21221276.958 7       683.946 8       532.942 7 111518568.62208
  86897586.60507        49.000          43.750  
  24198938.631 6                     -3584.827 6                 127166222.99406
                        37.750                  
  22239700.121 7  22239700.751 6     -2666.065 7     -2077.491 6 116870395.65007
  91067822.64606        46.000          41.250  
  24403343.268 5  24403344.672 5     -3679.185 5     -2867.423 5 128240419.32105
  99927584.63205        32.500          30.250  
  22654714.464 7                     -2578.461 7                 119051330.90607
                        47.500                  
  20256080.573 8  20256082.652 8       972.994 8       758.200 8 106446407.49908
  82945260.60408        51.250          49.250  
  23454407.427 7  23454411.018 6      1901.822 7      1481.834 6 123253753.31207
  96041900.43206        42.000          40.000  
  24657173.757 6  24657176.775 5      3534.546 6      2753.814 5 129574320.45606
 100967001.74305        38.000          34.000  
  22876028.512 7  22876031.919 7     -3058.763 7     -2383.381 7 120214308.38007
  93673484.18107        46.000          42.500  
 16 02 18 00 00 12.0000000  0 11G02G06G12G13G15G17G19G24G25G29G32   
  22230477.952 7                      2784.847 7                 116821948.19907
                        45.250                  
  22666931.806 7  22666935.343 7       558.734 7       435.452 7 119115542.19607
  92817320.99307        44.250          42.000  
  21221147.437 8  21221146.941 7       683.750 8       532.779 7 111517884.78208
  86897053.74607        49.000          43.750  
  24199620.737 6                     -3585.096 6                 127169807.96406
                        37.750                  
  22240207.583 7  22240207.806 6     -2666.444 7     -2077.724 6 116873061.89807
  91069900.23706        46.250          41.500  
  24404043.180 5  24404043.480 4     -3679.926 5     -2867.524 4 128244098.98105
  99930451.86104        32.750          29.750  
  22655205.127 7                     -2578.838 7                 119053909.52707
                        47.500                  
  20255895.483 8  20255897.522 8       972.478 8       757.785 8 106445434.75208
  82944502.62408        51.250          49.000  
  23454045.673 6  23454049.268 6      1901.779 6      1481.864 6 123251851.52006
  96040418.50006        41.750          40.000  
  24656501.506 6  24656504.207 5      3534.237 6      2754.147 5 129570786.00706
 100964247.59705        38.000          34.250  
  22876610.636 7  22876613.798 7     -3058.890 7     -2383.522 7 120217367.18407
  93675867.66807        46.000          42.500  
 16 02 18 00 00 13.0000000  0 11G02G06G12G13G15G17G19G24G25G29G32   
  22229948.172 7                      2784.640 7                 116819163.50907
                        45.250                  
  22666825.341 7  22666829.039 7       558.355 7       435.106 7 119114983.66607
  92816885.77507        44.250          42.000  
  21221017.282 8  21221016.870 7       683.842 8       532.743 7 111517201.07008
  86896520.98807        49.000          43.750  
  24200302.802 6                     -3584.743 6                 127173392.94206
                        38.250                  
  22240715.018 7  22240715.241 6     -2666.571 7     -2077.833 6 116875728.45807
  91071978.07606        46.250          41.250  
  24404743.458 5  24404743.557 5     -3679.503 5     -2867.234 5 128247778.64205
  99933319.12405        32.750          30.750  
  22655695.869 7                     -2578.852 7                 119056488.41307
                        47.500                  
  20255710.456 8  20255712.442 8       972.240 8       757.440 8 106444462.46708
  82943745.00008        51.500          49.000  
  23453683.888 7  23453687.219 6      1901.770 7      1481.844 6 123249949.81407
  96038936.65806        42.250          40.000  
  24655829.046 6  24655831.492 5      3534.412 6      2753.972 5 129567251.67406
 100961493.58205        38.500          34.250  
  22877192.614 7  22877195.967 7     -3058.967 7     -2383.778 7 120220426.20207
  93678251.31707        46.000          42.500  
 16 02 18 00 00 14.0000000  0 11G02G06G12G13G15G17G19G24G25G29G32   
  22229418.303 7                      2784.324 7                 116816379.09907
                        45.250                  
  22666719.216 7  22666723.026 7       557.708 7       434.668 7 119114425.68807
  92816450.99007        44.250          42.000  
  21220887.234 8  21220886.827 7       683.542 8       532.673 7 111516517.48908
  86895988.32007        49.000          43.500  
  24200984.756 6                     -3584.998 6                 127176977.93306
                        37.500                  
  22241222.359 7  22241222.489 6     -2666.991 7     -2078.237 6 116878395.30207
  91074056.14106        46.250          41.500  
  24405442.892 5  24405444.358 5     -3679.482 5     -2867.279 5 128251458.37705
  99936186.46705        32.000          30.000  
  22656186.710 7                     -2579.258 7                 119059067.58607
                        47.750                  
  20255525.510 8  20255527.603 8       971.580 8       757.059 8 106443490.64408
  82942987.73108        51.500          49.000  
  23453322.160 7  23453325.348 6      1901.692 7      1481.749 6 123248048.16207
  96037454.85106        42.250          40.000  
  24655156.214 6  24655158.857 5      3534.238 6      2753.981 5 129563717.45606
 100958739.63305        38.250          33.750  
  22877774.828 7  22877778.114 7     -3059.198 7     -2383.884 7 120223485.40907
  93680635.11907        46.250          42.500  
 16 02 18 00 00 15.0000000  0 11G02G06G12G13G15G17G19G24G25G29G32   
  22228888.487 7                      2783.982 7                 116813595.00507
                        45.500                  
  22666613.082 7  22666616.972 7       557.079 7       434.122 7 119113868.29507
  92816016.66007        44.000          42.000  
  21220757.248 8  21220756.828 7       683.389 8       532.556 7 111515834.05508
  86895455.77007        49.250          43.750  
  24201666.947 6                     -3585.092 6                 127180562.90606
                        38.000                  
  22241730.032 7  22241730.197 6     -2667.330 7     -2078.553 6 116881062.47807
  91076134.46806        46.250          41.250  
  24406142.929 5  24406144.641 5     -3679.806 5     -2867.322 5 128255138.23405
  99939053.89205        32.500          30.250  
  22656677.618 7                     -2579.624 7                 119061647.05907
                        47.750                  
  20255340.671 8  20255342.692 8       971.167 8       756.744 8 106442519.27708
  82942230.82208        51.500          49.000  
  23452960.294 7  23452963.572 6      1901.520 7      1481.718 6 123246146.59007
  96035973.09406        42.500          40.000  
  24654483.597 6  24654486.271 5      3534.074 6      2753.894 5 129560183.37606
 100955985.81305        38.500          34.000  
  22878357.198 7  22878360.208 7     -3059.583 7     -2384.075 7 120226544.84307
  93683019.08207        46.000          42.500  
 16 02 18 00 00 16.0000000  0 11G02G06G12G13G15G17G19G24G25G29G32   
  22228358.850 7                      2783.631 7                 116810811.21407
                        45.500                  
  22666507.055 7  22666510.932 7       556.609 7       433.624 7 119113311.46707
  92815582.76707        44.250          42.000  
  21220627.213 8  21220626.686 7       683.242 8       532.322 7 111515150.75308
  86894923.32807        49.250          43.750  
  24202348.896 6                     -3585.065 6                 127184147.92706
                        37.500                  
  22242237.489 7  22242237.726 6     -2667.604 7     -2078.625 6 116883729.95607
  91078213.01006        46.250          41.250  
  24406843.145 5  24406844.075 5     -3680.006 5     -2868.040 5 128258818.17105
  99941921.36905        31.750          30.250  
  22657168.451 7                     -2579.879 7                 119064226.80907
                        47.500                  
  20255155.904 8  20255157.925 8       970.649 8       756.359 8 106441548.37008
  82941474.27008        51.500          49.000  
  23452598.629 7  23452601.522 6      1901.356 7      1481.661 6 123244245.09107
  96034491.40206        42.250          40.000  
  24653811.222 6  24653813.900 5      3533.890 6      2753.711 5 129556649.41806
 100953232.07105        38.500          34.500  
  22878939.502 7  22878942.319 7     -3059.748 7     -2384.152 7 120229604.47107
  93685403.20507        46.000          42.750  
 16 02 18 00 00 17.0000000  0 11G02G06G12G13G15G17G19G24G25G29G32   
  22227829.294 7                      2783.336 7                 116808027.71307
                        45.500                  
  22666401.091 7  22666404.807 7       556.030 7       433.262 7 119112755.19907
  92815149.30807        44.000          42.000  
  21220497.268 8  21220496.602 7       683.169 8       532.322 7 111514467.58208
  86894390.98507        49.250          43.750  
  24203031.167 6                     -3584.708 6                 127187732.89606
                        37.000                  
  22242745.126 7  22242745.541 6     -2667.875 7     -2078.922 6 116886397.74107
  91080291.79506        46.250          41.250  
  24407543.173 5  24407544.335 5     -3679.936 5     -2867.585 5 128262498.17905
  99944788.90405        31.750          30.250  
  22657659.520 7                     -2580.211 7                 119066806.85207
                        47.750                  
  20254971.279 8  20254973.242 8       970.260 8       755.997 8 106440577.92208
  82940718.07308        51.500          49.000  
  23452236.651 7  23452239.469 6      1901.429 7      1481.505 6 123242343.64407
  96033009.76606        42.250          39.750  
  24653138.860 6  24653141.435 5      3533.886 6      2753.551 5 129553115.58206
 100950478.43305        38.750          34.000  
  22879521.564 7  22879524.672 7     -3059.883 7     -2384.355 7 120232664.31307
  93687787.49107        45.750          42.750  
 16 02 18 00 00 18.0000000  0 11G02G06G12G13G15G17G19G24G25G29G32   
  22227299.845 7                      2783.162 7                 116805244.50507
                        45.750                  
  22666295.257 7  22666299.353 7       555.554 7       432.789 7 119112199.50107
  92814716.30207        43.750          42.000  
  21220367.264 8  21220366.518 7       683.077 8       532.229 7 111513784.54908
  86893858.75507        49.000          43.750  
  24203713.501 6                     -3585.285 6                 127191317.92606
                        37.500                  
  22243252.843 7  22243253.339 6     -2668.101 7     -2079.060 6 116889065.82607
  91082370.82606        46.250          41.500  
  24408243.004 5  24408244.658 5     -3680.356 5     -2867.872 5 128266178.26405
  99947656.49005        32.250          30.000  
  22658150.611 7                     -2580.287 7                 119069387.16107
                        47.750                  
  20254786.686 8  20254788.636 8       969.846 8       755.664 8 106439607.94808
  82939962.25508        51.500          49.250  
  23451874.843 7  23451877.289 6      1901.527 7      1481.602 6 123240442.26607
  96031528.16406        42.250          39.750  
  24652466.176 6  24652469.310 5      3533.856 6      2753.458 5 129549581.86806
 100947724.89405        38.250          34.250  
  22880103.886 7  22880107.204 7     -3060.147 7     -2384.564 7 120235724.35007
  93690171.94507        45.750          42.750  
 16 02 18 00 00 19.0000000  0 11G02G06G12G13G15G17G19G24G25G29G32   
  22226770.431 7                      2782.769 7                 116802461.59507
                        45.500                  
  22666189.409 7  22666193.688 7       554.848 7       432.248 7 119111644.37307
  92814283.72907        43.500          42.250  
  21220237.292 8  21220236.389 7       682.882 8       532.053 7 111513101.65108
  86893326.62807        49.250          44.000  
  24204395.772 6                     -3584.858 6                 127194902.90906
                        36.750                  
  22243760.510 7  22243760.989 6     -2668.492 7     -2079.312 6 116891734.21607
  91084450.09206        46.250          41.500  
  24408943.385 5  24408945.375 5     -3680.332 5     -2867.387 5 128269858.41505
  99950524.12205        32.250          30.000  
  22658641.689 7                     -2580.750 7                 119071967.76007
                        47.750                  
  20254602.277 8  20254604.181 8       969.340 8       755.281 8 106438638.43808
  82939206.79808        51.500          49.250  
  23451512.875 7  23451515.598 6      1901.302 7      1481.578 6 123238540.96307
  96030046.63406        42.250          39.750  
  24651793.603 6  24651797.149 5      3533.622 6      2753.243 5 129546048.27006
 100944971.45305        38.250          34.500  
  22880686.274 7  22880689.637 7     -3060.226 7     -2384.636 7 120238784.57807
  93692556.52907        46.000          43.000  
 16 02 18 00 00 20.0000000  0 11G02G06G12G13G15G17G19G24G25G29G32   
  22226240.669 7                      2782.450 7                 116799678.99807
                        45.500                  
  22666083.593 7  22666088.136 7       554.245 7       431.958 7 119111089.80307
  92813851.60007        43.750          42.250  
  21220107.378 8  21220106.591 7       682.686 8       531.936 7 111512418.89008
  86892794.61307        49.000          44.000  
  24205078.008 6                     -3585.246 6                 127198487.91206
                        37.000                  
  22244268.326 7  22244269.023 6     -2668.863 7     -2079.617 6 116894402.92507
  91086529.59606        46.000          41.750  
  24409644.352 5  24409645.555 5     -3680.346 5     -2867.323 5 128273538.66305
  99953391.85105        31.750          30.000  
  22659132.875 7                     -2581.002 7                 119074548.65307
                        47.750                  
  20254417.956 8  20254419.812 8       968.805 8       754.890 8 106437669.40608
  82938451.70908        51.500          49.250  
  23451150.928 7  23451153.772 6      1901.159 7      1481.475 6 123236639.73107
  96028565.16706        42.250          39.750  
  24651121.290 6  24651124.890 5      3533.350 6      2753.364 5 129542514.83306
 100942218.10405        38.000          34.250  
  22881268.672 7  22881271.976 7     -3060.651 7     -2384.878 7 120241845.03307
  93694941.29007        46.000          42.750  
 16 02 18 00 00 21.0000000  0 11G02G06G12G13G15G17G19G24G25G29G32   
  22225711.234 7                      2782.134 7                 116796896.71007
                        45.250                  
  22665978.299 7  22665982.793 7       553.681 7       431.487 7 119110535.83007
  92813419.93207        43.750          42.250  
  21219977.455 8  21219976.758 7       682.559 8       531.874 7 111511736.28108
  86892262.70207        49.000          44.000  
  24205760.037 6                     -3585.095 6                 127202072.95906
                        37.000                  
  22244776.230 7  22244776.937 6     -2669.165 7     -2079.980 6 116897071.94707
  91088609.36106        46.000          41.750  
  24410344.975 5  24410346.518 4     -3680.592 5     -2867.351 4 128277219.03605
  99956259.59904        32.250          29.750  
  22659623.984 7                     -2581.311 7                 119077129.84407
                        47.500                  
  20254233.627 8  20254235.577 8       968.307 8       754.473 8 106436700.84908
  82937696.98408        51.500          49.250  
  23450789.066 7  23450791.732 6      1901.146 7      1481.292 6 123234738.58207
  96027083.74406        42.000          39.500  
  24650449.076 6  24650452.854 5      3533.342 6      2753.275 5 129538981.51706
 100939464.87205        38.000          34.000  
  22881851.159 7  22881854.284 7     -3060.815 7     -2385.043 7 120244905.69007
  93697326.22807        46.000          42.500  
 16 02 18 00 00 22.0000000  0 11G02G06G12G13G15G17G19G24G25G29G32   
  22225181.802 7                      2781.849 7                 116794114.71907
                        45.500                  
  22665872.979 7  22665877.509 7       553.103 7       431.064 7 119109982.40907
  92812988.69807        43.750          42.250  
  21219847.604 8  21219846.911 7       682.430 8       531.826 7 111511053.80508
  86891730.89507        49.250          43.750  
  24206442.210 6                     -3584.864 6                 127205657.95306
                        36.750                  
  22245284.220 7  22245284.891 6     -2669.468 7     -2080.087 6 116899741.27707
  91090689.34406        46.000          41.750  
  24411045.352 5  24411048.160 5     -3680.557 5     -2868.292 5 128280899.45205
  99959127.54705        32.250          30.000  
  22660115.125 7                     -2581.665 7                 119079711.31707
                        47.500                  
  20254049.360 8  20254051.377 8       967.893 8       754.201 8 106435732.74908
  82936942.61708        51.500          49.250  
  23450427.366 7  23450430.085 6      1901.050 7      1481.372 6 123232837.49907
  96025602.37606        42.000          39.500  
  24649776.647 6  24649780.743 5      3533.239 6      2753.003 5 129535448.31806
 100936711.72505        38.000          33.750  
  22882433.583 7  22882436.910 7     -3061.084 7     -2385.075 7 120247966.56007
  93699711.30507        46.000          42.750  
 16 02 18 00 00 23.0000000  0 11G02G06G12G13G15G17G19G24G25G29G32   
  22224652.550 7                      2781.553 7                 116791333.03107
                        45.500                  
  22665767.748 7  22665772.363 7       552.587 7       430.587 7 119109429.55707
  92812557.90307        43.500          42.250  
  21219717.766 8  21219717.189 7       682.283 8       531.676 7 111510371.46608
  86891199.20707        49.250          44.000  
  24207124.007 6                     -3585.284 6                 127209242.98806
                        37.000                  
  22245792.353 7  22245792.867 6     -2669.748 7     -2080.347 6 116902410.91207
  91092769.57906        46.250          41.500  
  24411745.720 5  24411748.295 5     -3680.746 5     -2867.801 5 128284579.94305
  99961995.43805        32.500          30.250  
  22660606.377 7                     -2581.820 7                 119082293.06607
                        47.750                  
  20253865.179 8  20253867.280 8       967.407 8       753.806 8 106434765.13208
  82936188.63408        51.500          49.250  
  23450065.330 7  23450068.295 6      1901.183 7      1481.343 6 123230936.47807
  96024121.07306        42.000          39.500  
  24649104.311 6  24649107.983 5      3533.212 6      2753.096 5 129531915.22106
 100933958.67205        37.750          33.750  
  22883016.017 7  22883019.495 7     -3061.170 7     -2385.246 7 120251027.60807
  93702096.54207        46.000          42.500  
 16 02 18 00 00 24.0000000  0 11G02G06G12G13G15G17G19G24G25G29G32   
  22224123.065 7                      2781.300 7                 116788551.65207
                        45.500                  
  22665662.773 7  22665667.450 7       552.007 7       430.089 7 119108877.27807
  92812127.56907        43.750          42.250  
  21219587.932 8  21219587.315 7       682.126 8       531.663 7 111509689.27308
  86890667.62707        49.250          44.000  
  24207806.346 6                     -3585.296 6                 127212828.03306
                        37.000                  
  22246300.481 7  22246300.937 6     -2670.084 7     -2080.557 6 116905080.86507
  91094850.06406        46.250          41.500  
  24412446.271 5  24412448.498 4     -3680.421 5     -2868.231 4 128288260.51105
  99964863.43804        32.500          29.750  
  22661097.750 7                     -2582.200 7                 119084875.11507
                        47.750                  
  20253681.149 8  20253683.309 8       966.869 8       753.423 8 106433797.98108
  82935435.00608        51.500          49.250  
  23449703.576 7  23449706.844 6      1900.861 7      1481.162 6 123229035.54307
  96022639.82206        42.000          39.000  
  24648431.708 6  24648435.710 5      3532.938 6      2752.843 5 129528382.29506
 100931205.74305        38.000          33.500  
  22883598.571 7  22883601.875 7     -3061.239 7     -2385.477 7 120254088.87107
  93704481.95707        46.000          42.500  
 16 02 18 00 00 25.0000000  0 11G02G06G12G13G15G17G19G24G25G29G32   
  22223593.862 7                      2780.913 7                 116785770.58607
                        45.500                  
  22665557.877 7  22665562.255 7       551.518 7       429.649 7 119108325.57607
  92811697.67207        43.750          42.250  
  21219458.192 8  21219457.490 7       682.067 8       531.556 7 111509007.20708
  86890136.14707        49.250          44.000  
  24208488.675 6                     -3584.814 6                 127216413.02506
                        37.250                  
  22246808.713 7  22246809.048 6     -2670.315 7     -2080.755 6 116907751.11807
  91096930.77706        46.250          41.500  
  24413147.113 5  24413149.702 5     -3680.439 5     -2867.958 5 128291941.19805
  99967731.47305        32.500          30.500  
  22661589.056 7                     -2582.392 7                 119087457.43307
                        47.500                  
  20253497.213 8  20253499.253 8       966.480 8       753.071 8 106432831.29008
  82934681.73908        51.500          49.250  
  23449341.821 7  23449344.916 6      1900.912 7      1481.086 6 123227134.67407
  96021158.62406        42.000          38.750  
  24647759.216 6  24647762.941 5      3532.833 6      2752.610 5 129524849.49406
 100928452.90405        37.750          33.500  
  22884181.134 7  22884184.407 7     -3061.510 7     -2385.624 7 120257150.35607
  93706867.52107        46.000          42.500  
 16 02 18 00 00 26.0000000  0 11G02G06G12G13G15G17G19G24G25G29G32   
  22223064.699 7                      2780.592 7                 116782989.81807
                        45.500                  
  22665452.964 7  22665457.351 7       550.838 7       429.145 7 119107774.44007
  92811268.20507        43.750          42.000  
  21219328.448 8  21219327.666 7       681.888 8       531.313 7 111508325.28308
  86889604.77507        49.250          44.000  
  24209171.067 6                     -3585.265 6                 127219998.11106
                        36.750                  
  22247316.872 7  22247317.118 6     -2670.704 7     -2081.030 6 116910421.68607
  91099011.73606        46.250          41.250  
  24413848.505 5  24413849.520 5     -3680.856 5     -2867.829 5 128295621.97105
  99970599.56705        32.250          30.250  
  22662080.559 7                     -2582.773 7                 119090040.04007
                        47.500                  
  20253313.345 8  20253315.245 8       966.025 8       752.769 8 106431865.05108
  82933928.82108        51.500          49.250  
  23448980.340 7  23448983.246 6      1900.732 7      1480.987 6 123225233.86807
  96019677.48506        42.250          38.750  
  24647087.230 6  24647090.123 5      3532.675 6      2752.701 5 129521316.80506
 100925700.14205        38.000          33.250  
  22884763.688 7  22884766.979 7     -3061.771 7     -2385.866 7 120260212.05007
  93709253.24707        45.750          42.500  
 16 02 18 00 00 27.0000000  0 11G02G06G12G13G15G17G19G24G25G29G32   
  22222535.465 7                      2780.241 7                 116780209.35807
                        45.500                  
  22665348.275 7  22665352.742 7       550.163 7       428.785 7 119107223.89007
  92810839.20307        43.750          42.000  
  21219198.718 8  21219198.194 7       681.644 8       531.198 7 111507643.51008
  86889073.52107        49.250          44.000  
  24209853.535 6                     -3585.521 6                 127223583.16206
                        37.000                  
  22247825.019 7  22247825.229 6     -2671.062 7     -2081.225 6 116913092.56807
  91101092.94006        46.250          41.500  
  24414549.405 5  24414548.810 4     -3680.944 5     -2868.470 4 128299302.80805
  99973467.77904        32.750          29.750  
  22662572.102 7                     -2583.058 7                 119092622.94107
                        47.500                  
  20253129.539 8  20253131.488 8       965.485 8       752.323 8 106430899.28308
  82933176.27908        51.500          49.250  
  23448618.751 7  23448621.622 6      1900.647 7      1481.039 6 123223333.15107
  96018196.39806        42.250          38.750  
  24646415.350 6  24646417.886 5      3532.487 6      2752.413 5 129517784.26406
 100922947.52605        38.250          33.250  
  22885346.344 7  22885349.703 7     -3062.080 7     -2385.980 7 120263273.94207
  93711639.13407        46.000          42.500  
 16 02 18 00 00 28.0000000  0 11G02G06G12G13G15G17G19G24G25G29G32   
  22222006.436 7                      2780.012 7                 116777429.19207
                        45.750                  
  22665243.737 7  22665247.918 7       549.644 7       428.353 7 119106673.88207
  92810410.62107        43.750          42.000  
  21219069.000 8  21219068.504 7       681.567 8       531.129 7 111506961.84608
  86888542.36207        49.250          44.000  
  24210535.990 6                     -3585.372 6                 127227168.21706
                        36.750                  
  22248333.357 7  22248333.643 6     -2671.366 7     -2081.568 6 116915763.74807
  91103174.38106        46.000          41.500  
  24415249.773 5  24415249.312 5     -3680.832 5     -2868.235 5 128302983.72405
  99976336.01905        32.250          30.250  
  22663063.713 7                     -2583.234 7                 119095206.10407
                        47.500                  
  20252945.822 8  20252947.781 8       965.053 8       751.970 8 106429933.97308
  82932424.09008        51.250          49.250  
  23448257.135 7  23448259.935 6      1900.674 7      1481.042 6 123221432.48207
  96016715.36606        42.250          38.750  
  24645743.172 6  24645745.640 5      3532.397 6      2752.513 5 129514251.82506
 100920194.95805        38.250          33.250  
  22885929.046 7  22885932.266 7     -3062.185 7     -2386.114 7 120266336.02507
  93714025.17907        46.000          42.250  
 16 02 18 00 00 29.0000000  0 11G02G06G12G13G15G17G19G24G25G29G32   
  22221477.528 7                      2779.638 7                 116774649.34807
                        45.750                  
  22665139.240 7  22665142.897 7       549.029 7       427.886 7 119106124.46807
  92809982.50507        43.500          42.000  
  21218939.283 8  21218938.858 7       681.377 8       531.001 7 111506280.35308
  86888011.32707        49.000          43.750  
  24211217.608 6                     -3585.200 6                 127230753.21806
                        36.750                  
  22248841.673 7  22248842.196 6     -2671.708 7     -2081.743 6 116918435.26207
  91105256.07506        46.000          41.500  
  24415950.056 5  24415949.872 4     -3681.260 5     -2867.975 4 128306664.72205
  99979204.31604        32.500          29.250  
  22663555.417 7                     -2583.618 7                 119097789.59007
                        47.500                  
  20252762.204 8  20252764.221 8       964.567 8       751.665 8 106428969.14108
  82931672.27308        51.250          49.250  
  23447895.676 7  23447898.033 6      1900.472 7      1480.864 6 123219531.92107
  96015234.40306        42.000          38.750  
  24645071.543 6  24645073.586 5      3532.157 6      2752.310 5 129510719.54006
 100917442.53705        38.000          33.000  
  22886511.725 7  22886515.276 7     -3062.469 7     -2386.283 7 120269398.33807
  93716411.38507        46.000          42.500  
 16 02 18 00 00 30.0000000  0 11G02G06G12G13G15G17G19G24G25G29G32   
  22220948.625 7                      2779.338 7                 116771869.79607
                        45.750                  
  22665034.751 7  22665038.565 7       548.443 7       427.285 7 119105575.61107
  92809554.82807        43.500          42.000  
  21218809.619 8  21218809.204 7       681.260 8       530.968 7 111505598.97308
  86887480.37607        49.000          44.000  
  24211900.049 6                     -3584.945 6                 127234338.27306
                        37.000                  
  22249350.088 7  22249350.839 6     -2671.953 7     -2082.005 6 116921107.07207
  91107337.99806        46.000          41.500  
  24416650.477 5  24416650.459 4     -3681.066 5     -2868.853 4 128310345.78805
  99982072.71504        32.500          29.750  
  22664047.031 7                     -2583.893 7                 119100373.33307
                        47.500                  
  20252578.706 8  20252580.745 8       964.113 8       751.204 8 106428004.76208
  82930920.80508        51.250          49.250  
  23447534.083 7  23447536.426 6      1900.379 7      1480.836 6 123217631.40007
  96013753.47906        42.000          38.500  
  24644399.315 6  24644401.345 5      3532.071 6      2752.063 5 129507187.36006
 100914690.18305        38.250          33.500  
  22887094.610 7  22887098.264 7     -3062.628 7     -2386.455 7 120272460.83907
  93718797.75307        46.000          42.500  
 16 02 18 00 00 31.0000000  0 11G02G06G12G13G15G17G19G24G25G29G32   
  22220419.878 7                      2779.207 7                 116769090.54607
                        45.750                  
  22664930.366 7  22664934.377 7       548.055 7       426.890 7 119105027.31707
  92809127.58807        43.500          42.000  
  21218679.929 8  21218679.531 7       681.257 8       530.826 7 111504917.74308
  86886949.55407        49.000          43.750  
  24212582.065 6                     -3585.149 6                 127237923.34606
                        36.500                  
  22249858.493 7  22249859.459 6     -2672.116 7     -2082.329 6 116923779.19407
  91109420.17706        46.000          41.500  
  24417351.216 5  24417351.069 4     -3681.478 5     -2868.345 4 128314026.96205
  99984941.13404        33.000          28.750  
  22664538.726 7                     -2584.051 7                 119102957.36507
                        47.750                  
  20252395.316 8  20252397.337 8       963.689 8       750.898 8 106427040.87508
  82930169.73008        51.250          49.250  
  23447172.297 7  23447175.070 6      1900.595 7      1480.842 6 123215730.95207
  96012272.62406        42.250          38.750  
  24643727.413 6  24643729.569 5      3532.017 6      2752.195 5 129503655.32906
 100911937.94005        38.250          33.000  
  22887677.616 7  22887680.988 7     -3062.772 7     -2386.668 7 120275523.54607
  93721184.27507        46.250          42.500  
 16 02 18 00 00 32.0000000  0 11G02G06G12G13G15G17G19G24G25G29G32   
  22219891.108 7                      2778.818 7                 116766311.61007
                        46.000                  
  22664826.239 7  22664829.955 7       547.372 7       426.634 7 119104479.60907
  92808700.78907        43.500          42.000  
  21218550.337 8  21218550.046 7       681.069 8       530.807 7 111504236.64408
  86886418.82207        49.000          44.000  
  24213264.435 6                     -3584.930 6                 127241508.39406
                        36.750                  
  22250367.055 7  22250367.941 6     -2672.548 7     -2082.584 6 116926451.61807
  91111502.58206        46.250          41.500  
  24418051.651 5  24418051.834 4     -3681.240 5     -2869.029 4 128317708.21905
  99987809.69004        32.500          29.000  
  22665030.453 7                     -2584.439 7                 119105541.68907
                        47.750                  
  20252211.975 8  20252213.996 8       963.175 8       750.509 8 106426077.47108
  82929419.02608        51.250          49.250  
  23446810.467 7  23446813.588 6      1900.330 7      1480.606 6 123213830.59507
  96010791.82806        42.000          38.750  
  24643055.114 6  24643057.148 5      3531.916 6      2752.065 5 129500123.41206
 100909185.80205        38.500          33.000  
  22888260.595 7  22888263.667 7     -3063.019 7     -2386.587 7 120278586.46207
  93723570.94807        46.250          42.500  
 16 02 18 00 00 33.0000000  0 11G02G06G12G13G15G17G19G24G25G29G32   
  22219362.469 7                      2778.486 7                 116763532.97407
                        45.500                  
  22664721.961 7  22664725.990 7       546.962 7       426.072 7 119103932.45407
  92808274.44907        43.250          42.000  
  21218420.754 8  21218420.405 7       680.978 8       530.548 7 111503555.68708
  86885888.21607        49.000          44.000  
  24213946.720 6                     -3584.913 6                 127245093.47006
                        37.000                  
  22250875.658 7  22250876.440 6     -2672.823 7     -2082.767 6 116929124.35407
  91113585.23906        46.250          41.500  
  24418752.001 5  24418752.359 4     -3681.365 5     -2869.160 4 128321389.55005
  99990678.26804        32.250          29.250  
  22665522.318 7                     -2584.651 7                 119108126.30107
                        47.750                  
  20252028.742 8  20252030.812 8       962.752 8       750.187 8 106425114.52308
  82928668.67208        51.000          49.250  
  23446448.744 7  23446452.214 6      1900.342 7      1480.576 6 123211930.29107
  96009311.08106        42.000          38.750  
  24642382.846 6  24642384.947 5      3531.879 6      2751.953 5 129496591.62306
 100906433.78405        38.500          33.250  
  22888843.654 7  22888846.409 7     -3063.240 7     -2386.828 7 120281649.58707
  93725957.79807        46.250          42.500  
 16 02 18 00 00 34.0000000  0 11G02G06G12G13G15G17G19G24G25G29G32   
  22218833.775 7                      2778.097 7                 116760754.65807
                        45.500                  
  22664618.076 7  22664622.056 6       546.331 7       425.761 6 119103385.88907
  92807848.55806        43.500          41.750  
  21218291.260 8  21218290.907 7       680.657 8       530.430 7 111502874.88408
  86885357.71207        49.000          44.000  
  24214628.995 6                     -3585.206 6                 127248678.56206
                        36.500                  
  22251384.448 7  22251384.877 6     -2673.272 7     -2082.993 6 116931797.42307
  91115668.12706        46.250          41.500  
  24419452.436 5  24419452.776 4     -3681.114 5     -2868.118 4 128325070.95305
  99993546.85404        31.750          29.250  
  22666014.170 7                     -2585.104 7                 119110711.21007
                        47.500                  
  20251845.526 8  20251847.520 8       962.185 8       749.761 8 106424152.04108
  82927918.68208        51.250          49.250  
  23446087.187 6  23446090.442 6      1900.115 6      1480.585 6 123210030.09706
  96007830.38706        41.750          38.750  
  24641710.846 6  24641713.314 5      3531.481 6      2751.840 5 129493060.00006
 100903681.84405        38.250          32.750  
  22889426.673 7  22889429.517 7     -3063.469 7     -2387.065 7 120284712.91807
  93728344.81307        46.250          42.500  
 16 02 18 00 00 35.0000000  0 11G02G06G12G13G15G17G19G24G25G29G32   
  22218305.046 7                      2777.842 7                 116757976.62607
                        45.500                  
  22664514.254 7  22664518.122 6       545.602 7       425.260 6 119102839.89307
  92807423.09106        43.500          41.750  
  21218161.730 8  21218161.158 7       680.627 8       530.315 7 111502194.19408
  86884827.31507        49.000          43.750  
  24215311.065 6                     -3585.142 6                 127252263.62506
                        36.250                  
  22251893.296 7  22251893.649 6     -2673.511 7     -2083.264 6 116934470.76707
  91117751.26806        46.250          41.500  
  24420152.469 5  24420153.747 4     -3681.703 5     -2868.863 4 128328752.48805
  99996415.55704        31.750          29.750  
  22666506.173 7                     -2585.351 7                 119113296.39407
                        47.500                  
  20251662.466 8  20251664.452 8       961.701 8       749.400 8 106423190.03908
  82927169.07408        51.250          49.250  
  23445725.777 7  23445728.647 6      1900.081 7      1480.642 6 123208129.93007
  96006349.75306        42.000          38.500  
  24641039.016 6  24641042.021 5      3531.373 6      2751.530 5 129489528.47006
 100900930.00205        38.250          33.000  
  22890009.625 7  22890012.402 7     -3063.639 7     -2387.302 7 120287776.44007
  93730731.97307        46.250          42.500  
 16 02 18 00 00 36.0000000  0 11G02G06G12G13G15G17G19G24G25G29G32   
  22217776.371 7                      2777.518 7                 116755198.90407
                        45.750                  
  22664410.490 7  22664414.166 7       545.208 7       424.861 7 119102294.45307
  92806998.07607        43.750          42.000  
  21218032.143 8  21218031.727 7       680.451 8       530.346 7 111501513.65008
  86884297.00707        49.000          44.000  
  24215993.390 6                     -3585.038 6                 127255848.71706
                        36.750                  
  22252402.127 7  22252402.225 6     -2673.869 7     -2083.384 6 116937144.43207
  91119834.63106        46.250          41.500  
  24420852.760 5  24420853.834 4     -3681.699 5     -2868.036 4 128332434.06805
  99999284.28904        32.000          29.250  
  22666998.092 7                     -2585.614 7                 119115881.85907
                        47.500                  
  20251479.497 8  20251481.410 8       961.262 8       749.086 8 106422228.50808
  82926419.82508        51.250          49.500  
  23445363.969 6  23445366.737 6      1900.095 6      1480.569 6 123206229.84106
  96004869.16006        41.750          38.250  
  24640367.114 6  24640368.657 5      3531.172 6      2752.133 5 129485997.07806
 100898178.24305        38.250          32.500  
  22890592.586 7  22890595.314 7     -3063.763 7     -2387.341 7 120290840.16507
  93733119.28307        46.000          42.500  
 16 02 18 00 00 37.0000000  0 11G02G06G12G13G15G17G19G24G25G29G32   
  22217247.838 7                      2777.264 7                 116752421.49507
                        45.750                  
  22664306.932 7  22664310.447 7       544.561 7       424.289 7 119101749.59007
  92806573.50707        43.750          42.000  
  21217902.716 8  21217901.996 7       680.398 8       530.177 7 111500833.23408
  86883766.81807        49.000          44.000  
