     2.11           OBSERVATION DATA    G (GPS)             RINEX VERSION / TYPE
teqc  2015Nov6      NGS Web User        20160116 23:22:28UTCPGM / RUN BY / DATE
Solaris x86 5.10|AMD64|cc SC5.8 -xarch=amd64|=+|=+          COMMENT
teqc  2015Nov6      NOAA/NOS/NGS/CORS   20160116 10:44:02UTCCOMMENT
teqc  2015Nov6      UCB SEISMO LAB      20160116 01:38:02UTCCOMMENT
                                                            COMMENT
BARD Data:  Bay Area Regional Deformation Network           COMMENT
            Berkeley Seismological Laboratory               COMMENT
            202 McCone Hall                                 COMMENT
            University of California                        COMMENT
            Berkeley, CA 94720-4760 USA                     COMMENT
                                                            COMMENT
NCEDC Archive:         ftp://www.ncedc.org                  COMMENT
                      http://www.ncedc.org                  COMMENT
                                                            COMMENT
Questions:                 bard@seismo.berkeley.edu         COMMENT
                                                            COMMENT
Linux 2.4.21-27.ELsmp|Opteron|gcc -static|Linux x86_64|=+   COMMENT
BIT 2 OF LLI FLAGS DATA COLLECTED UNDER A/S CONDITION       COMMENT
 SNR is mapped to RINEX snr flag value [0-9]                COMMENT
  L1 & L2: min(max(int(snr_dBHz/6), 0), 9)                  COMMENT
teqc edited: all SBAS satellites excluded                   COMMENT
teqc edited: all Compass satellites excluded                COMMENT
teqc edited: all QZSS satellites excluded                   COMMENT
TIBB                                                        MARKER NAME
Ingrid Johanson     BSL                                     OBSERVER / AGENCY
618-00916           TPS NET-G3A         4.0 Dec,21,2012 p1  REC # / TYPE / VERS
CR519992107         ASH701945B_M    SCIT                    ANT # / TYPE
 -2704026.1340 -4253051.2450  3895879.3050                  APPROX POSITION XYZ
        0.0083        0.0000        0.0000                  ANTENNA: DELTA H/E/N
     1     1                                                WAVELENGTH FACT L1/2
     7    L1    L2    C1    P1    P2    S1    S2            # / TYPES OF OBSERV
     1.0000                                                 INTERVAL
teqc windowed: start @ 2016 Jan 15 00:00:00.000             COMMENT
teqc windowed:  end  @ 2016 Jan 15 01:00:00.000             COMMENT
teqc edited: all GLONASS satellites excluded                COMMENT
  2016     1    15     0     0    0.0000000     GPS         TIME OF FIRST OBS
                                                            END OF HEADER
 16  1 15  0  0  0.0000000  0  8G23G16G32G09G06G07G03G26
 108366448.066 8  84441403.31047  20621438.522                    20621431.8894
        51.400          42.5004
 111249945.514 8  86688272.33346  21170147.558                    21170142.5274
        49.700          38.6004
 125072191.968 7  97458855.48044  23800448.808                    23800447.0994
        42.100          25.0004
 115115615.669 8  89700491.31546  21905766.103                    21905763.9784
        48.200          37.4004
 126711080.740 6  98735911.83643  24112316.011                    24112317.2884
        38.900          23.9004
 121911997.547 7  94996371.03245  23199081.237                    23199077.8924
        45.700          31.4004
 111112751.529 8  86581367.45746  21144042.564                    21144041.2254
        49.900          40.8004
 118593180.976 7  92410295.03145  22567517.717                    22567516.7694
        44.100          32.3004
 16  1 15  0  0  1.0000000  0  8G23G16G32G09G06G07G03G26
 108365698.401 8  84440819.15747  20621295.932                    20621289.1844
        52.200          42.6004
 111249739.296 8  86688111.64546  21170108.305                    21170103.3714
        51.100          38.6004
 125075616.484 7  97461523.93344  23801100.419                    23801098.7154
        42.100          25.0004
 115113413.405 8  89698775.26846  21905347.208                    21905344.9094
        49.400          37.4004
 126711640.815 6  98736348.26043  24112422.907                    24112423.9114
        38.900          23.9004
 121909378.250 7  94994330.02445  23198582.968                    23198579.4544
        45.300          31.4004
 111115105.847 8  86583201.99146  21144490.613                    21144489.2774
        50.200          40.8004
 118594973.682 7  92411691.94345  22567858.755                    22567857.9644
        43.900          32.3004
 16  1 15  0  0  2.0000000  0  8G23G16G32G09G06G07G03G26
 108364949.009 8  84440235.21647  20621153.436                    20621146.6834
        51.900          42.3004
 111249533.827 8  86687951.54146  21170069.139                    21170064.2574
        51.400          38.6004
 125079041.160 7  97464192.51144  23801752.093                    23801750.3154
        42.600          25.0004
 115111211.313 8  89697059.35346  21904928.198                    21904925.9834
        49.700          37.4004
 126712201.439 6  98736785.10943  24112529.577                    24112530.6774
        38.900          23.9004
 121906759.197 7  94992289.20145  23198084.540                    23198081.0154
        45.100          31.4004
 111117460.666 8  86585036.91646  21144938.780                    21144937.4284
        50.100          40.8004
 118596766.947 7  92413089.29245  22568200.091                    22568199.2924
        44.800          32.3004
 16  1 15  0  0  3.0000000  0  8G23G16G32G09G06G07G03G26
 108364199.845 8  84439651.45047  20621010.779                    20621004.0914
        52.800          42.5004
 111249329.029 8  86687791.95846  21170030.111                    21170025.2284
        50.500          38.6004
 125082465.977 7  97466861.19844  23802403.722                    23802401.9284
        42.600          25.0004
 115109009.298 8  89695343.49946  21904509.149                    21904506.9594
        48.400          37.8004
 126712762.566 6  98737222.35143  24112636.744                    24112637.4634
        37.200          23.9004
 121904140.310 7  94990248.51045  23197586.142                    23197582.7674
        45.100          31.4004
 111119815.929 8  86586872.18346  21145387.055                    21145385.4764
        50.800          40.8004
 118598560.728 7  92414487.04545  22568541.378                    22568540.6084
        44.300          32.3004
 16  1 15  0  0  4.0000000  0  8G23G16G32G09G06G07G03G26
 108363450.976 8  84439067.91647  20620868.290                    20620861.6364
        52.000          42.6004
 111249124.977 8  86687632.95746  21169991.357                    21169986.4414
        49.900          38.6004
 125085890.920 6  97469529.98344  23803055.325                    23803053.7274
        41.500          25.0004
 115106807.451 8  89693627.77746  21904090.209                    21904087.9324
        48.400          37.8004
 126713324.274 6  98737660.04643  24112743.396                    24112744.3594
        37.200          23.9004
 121901521.682 7  94988208.02045  23197087.970                    23197084.3504
        45.600          31.4004
 111122171.708 8  86588707.85346  21145835.125                    21145833.8604
        50.100          41.1004
 118600355.067 7  92415885.23045  22568882.929                    22568882.1284
        44.300          32.3004
 16  1 15  0  0  5.0000000  0  8G23G16G32G09G06G07G03G26
 108362702.435 8  84438484.63747  20620725.803                    20620719.1564
        52.900          42.6004
 111248921.722 8  86687474.57746  21169953.038                    21169947.6924
        49.100          38.6004
 125089316.102 6  97472198.95244  23803707.420                    23803705.4244
        41.500          25.0004
 115104605.792 8  89691912.20246  21903671.239                    21903669.0064
        48.800          37.8004
 126713886.578 6  98738098.20743  24112850.330                    24112851.3314
        37.200          23.9004
 121898903.335 7  94986167.75245  23196589.723                    23196586.1974
        44.900          31.4004
 111124528.058 8  86590543.97046  21146283.600                    21146282.2614
        50.600          41.1004
 118602150.048 7  92417283.91645  22569224.276                    22569223.7134
        44.700          32.3004
 16  1 15  0  0  6.0000000  0  8G23G16G32G09G06G07G03G26
 108361954.103 8  84437901.52047  20620583.334                    20620576.7474
        52.900          42.3004
 111248719.142 8  86687316.72246  21169914.472                    21169909.2284
        49.500          38.6004
 125092741.350 6  97474867.97344  23804359.293                    23804357.0294
        41.500          25.0004
 115102404.228 8  89690196.69746  21903252.184                    21903250.0814
        48.200          37.8004
 126714449.348 6  98738536.72943  24112957.862                    24112958.4234
        37.200          23.9004
 121896285.157 7  94984127.61245  23196091.386                    23196087.9684
        45.800          31.4004
 111126884.825 8  86592380.41046  21146732.086                    21146730.7354
        51.500          41.2004
 118603945.549 7  92418683.00845  22569566.264                    22569565.2914
        44.700          32.3004
 16  1 15  0  0  7.0000000  0  8G23G16G32G09G06G07G03G26
 108361206.100 8  84437318.66147  20620441.156                    20620434.3544
        52.600          42.5004
 111248517.318 8  86687159.45746  21169875.754                    21169870.8004
        50.000          38.6004
 125096166.826 7  97477537.17244  23805010.982                    23805008.9434
        42.300          25.0004
 115100202.834 8  89688481.32846  21902833.198                    21902831.0944
        48.500          37.8004
 126715012.726 6  98738975.72543  24113064.471                    24113065.7084
        37.200          23.9004
 121893667.256 7  94982087.68945  23195592.948                    23195589.9374
        45.800          31.4004
 111129242.125 8  86594217.26746  21147180.611                    21147179.3734
        50.900          41.2004
 118605741.642 7  92420082.56145  22569907.857                    22569907.0804
        45.100          32.3004
 16  1 15  0  0  8.0000000  0  8G23G16G32G09G06G07G03G26
 108360458.335 8  84436735.98347  20620298.933                    20620292.1194
        53.600          42.4004
 111248316.208 8  86687002.74446  21169837.362                    21169832.4954
        49.100          38.5004
 125099592.409 7  97480206.45644  23805662.767                    23805660.7874
        42.300          25.0004
 115098001.568 8  89686766.05946  21902414.431                    21902412.2414
        48.100          37.8004
 126715576.618 6  98739415.12143  24113171.712                    24113173.0364
        37.200          23.3004
 121891049.549 7  94980047.91845  23195094.840                    23195091.8574
        44.200          31.0004
 111131599.912 8  86596054.50146  21147629.358                    21147628.0104
        50.300          41.5004
 118607538.263 7  92421482.52645  22570249.871                    22570248.9474
        45.800          32.3004
 16  1 15  0  0  9.0000000  0  8G23G16G32G09G06G07G03G26
 108359710.816 8  84436153.50247  20620156.762                    20620149.8354
        52.600          42.4004
 111248115.800 8  86686846.58546  21169799.263                    21169794.4064
        50.600          38.5004
 125103018.123 7  97482875.84144  23806314.891                    23806312.7364
        42.600          25.0004
 115095800.413 8  89685050.87546  21901995.442                    21901993.4714
        48.600          37.8004
 126716141.052 6  98739854.94343  24113279.081                    24113280.5694
        36.000          23.3004
 121888432.048 7  94978008.30945  23194596.876                    23194593.8164
        44.200          31.0004
 111133958.171 8  86597892.10646  21148078.035                    21148076.8024
        49.300          41.2004
 118609335.438 7  92422882.92345  22570591.872                    22570591.0174
        45.200          32.3004
 16  1 15  0  0 10.0000000  0  8G23G16G32G09G06G07G03G26
 108358963.594 8  84435571.25047  20620014.622                    20620007.6244
        51.900          42.6004
 111247916.139 8  86686691.00746  21169761.239                    21169756.3924
        51.200          38.5004
 125106444.015 7  97485545.36644  23806967.000                    23806964.5824
        42.600          25.0004
 115093599.422 8  89683335.81746  21901576.795                    21901574.5744
        48.700          38.0004
 126716706.040 6  98740295.19543  24113385.739                    24113388.1244
        36.000          23.3004
 121885814.797 7  94975968.89545  23194098.765                    23194095.6864
        44.800          31.0004
 111136316.922 8  86599730.09346  21148526.998                    21148525.6854
        50.000          41.2004
 118611133.178 7  92424283.76045  22570933.846                    22570933.1254
        45.200          32.3004
 16  1 15  0  0 11.0000000  0  8G23G16G32G09G06G07G03G26
 108358216.626 8  84434989.19647  20619872.275                    20619865.3994
        53.000          42.6004
 111247717.202 8  86686535.99146  21169723.155                    21169718.4784
        49.800          38.7004
 125109870.031 7  97488214.98944  23807618.961                    23807616.5294
        42.600          25.0004
 115091398.548 8  89681620.85146  21901158.081                    21901155.8374
        48.500          38.0004
 126717271.556 6  98740735.85943  24113494.096                    24113495.6444
        36.000          23.3004
 121883197.759 7  94973929.64245  23193600.528                    23193597.8294
        44.800          31.0004
 111138676.159 8  86601568.46046  21148975.908                    21148974.6604
        49.600          41.3004
 118612931.489 7  92425685.04245  22571276.296                    22571275.2934
        46.200          32.6004
 16  1 15  0  0 12.0000000  0  8G23G16G32G09G06G07G03G26
 108357469.988 8  84434407.39947  20619730.212                    20619723.4554
        52.600          42.5004
 111247519.028 8  86686381.57146  21169685.515                    21169680.7914
        50.100          38.7004
 125113296.259 7  97490884.77544  23808270.678                    23808268.4294
        42.200          25.0004
 115089197.882 8  89679906.04946  21900738.982                    21900737.0844
        48.900          38.0004
 126717837.670 6  98741176.99043  24113601.657                    24113603.4304
        36.000          23.3004
 121880580.982 7  94971890.59845  23193102.437                    23193099.8504
        44.300          31.0004
 111141035.956 8  86603407.26246  21149424.891                    21149423.7184
        50.200          41.3004
 118614730.406 7  92427086.79745  22571618.741                    22571617.6644
        47.000          32.6004
 16  1 15  0  0 13.0000000  0  8G23G16G32G09G06G07G03G26
 108356723.588 8  84433825.78947  20619588.046                    20619581.3084
        53.400          42.5004
 111247321.554 8  86686227.69646  21169648.043                    21169643.2644
        50.600          38.7004
 125116722.612 7  97493554.65844  23808922.397                    23808920.4414
        42.200          25.0004
 115086997.309 8  89678191.32146  21900320.523                    21900318.4064
        49.200          38.0004
 126718404.278 6  98741618.50443  24113709.391                    24113711.2094
        36.000          23.3004
 121877964.424 7  94969851.72245  23192604.876                    23192601.8684
        44.300          31.0004
 111143396.198 8  86605246.41046  21149874.063                    21149872.9164
        50.000          41.3004
 118616529.832 7  92428488.94745  22571961.209                    22571960.0784
        45.900          32.6004
 16  1 15  0  0 14.0000000  0  8G23G16G32G09G06G07G03G26
 108355977.517 8  84433244.43547  20619446.201                    20619439.2954
        52.100          42.5004
 111247124.879 8  86686074.44446  21169610.789                    21169605.8554
        50.600          38.5004
 125120149.172 7  97496224.70444  23809574.493                    23809572.3944
        42.000          25.0004
 115084796.947 8  89676476.75646  21899901.869                    21899899.6524
        49.100          38.2004
 126718971.513 6  98742060.50843  24113817.299                    24113819.1764
        36.000          23.3004
 121875348.153 7  94967813.07245  23192106.802                    23192103.9244
        44.700          31.0004
 111145756.993 8  86607085.99146  21150323.288                    21150322.0814
        49.200          41.3004
 118618329.882 7  92429891.58245  22572303.558                    22572302.6124
        45.400          32.6004
 16  1 15  0  0 15.0000000  0  8G23G16G32G09G06G07G03G26
 108355231.690 8  84432663.26847  20619304.274                    20619297.3914
        52.300          42.6004
 111246928.899 8  86685921.73646  21169573.637                    21169568.6424
        50.200          38.5004
 125123575.838 7  97498894.83044  23810226.750                    23810224.4704
        42.000          25.0004
 115082596.678 7  89674762.26046  21899482.860                    21899481.0214
        46.800          38.2004
 126719539.256 6  98742502.90643  24113926.212                    24113927.1794
        36.000          23.3004
 121872732.074 7  94965774.56945  23191609.135                    23191606.0574
        44.700          31.0004
 111148118.261 8  86608925.93946  21150772.875                    21150771.4674
        50.600          41.5004
 118620130.467 7  92431294.63745  22572646.271                    22572645.2414
        45.600          32.6004
 16  1 15  0  0 16.0000000  0  8G23G16G32G09G06G07G03G26
 108354486.087 8  84432082.27847  20619162.306                    20619155.5714
        51.300          42.5004
 111246733.591 8  86685769.54846  21169536.508                    21169531.4204
        48.000          38.5004
 125127002.597 7  97501565.02944  23810878.947                    23810876.5054
        42.000          25.0004
 115080396.513 8  89673047.84746  21899064.034                    21899062.3204
        48.100          38.2004
 126720107.489 6  98742945.68643  24114034.148                    24114035.3484
        36.000          23.3004
 121870116.174 7  94963736.20845  23191111.417                    23191108.2664
        44.900          31.0004
 111150479.958 8  86610766.22346  21151222.381                    21151220.9034
        50.000          41.4004
 118621931.554 7  92432698.08145  22572988.891                    22572987.8954
        45.500          32.6004
 16  1 15  0  0 17.0000000  0  8G23G16G32G09G06G07G03G26
 108353740.815 8  84431501.54847  20619020.423                    20619013.8144
        51.100          42.4004
 111246539.083 8  86685617.98546  21169499.572                    21169494.4834
        49.100          38.5004
 125130429.601 6  97504235.42144  23811530.992                    23811528.6454
        41.700          25.0004
 115078196.556 8  89671333.59946  21898645.587                    21898643.6814
        48.800          38.2004
 126720676.314 6  98743388.92843  24114142.367                    24114143.7514
        37.200          23.3004
 121867500.565 7  94961698.07145  23190613.567                    23190610.3494
        45.100          31.0004
 111152842.238 8  86612606.95946  21151671.973                    21151670.4164
        50.600          41.4004
 118623733.295 7  92434102.03545  22573331.752                    22573330.8604
        45.500          32.6004
 16  1 15  0  0 18.0000000  0  8G23G16G32G09G06G07G03G26
 108352995.761 8  84430920.98447  20618878.862                    20618871.9424
        53.200          42.4004
 111246345.243 8  86685466.94146  21169462.637                    21169457.5644
        50.800          38.9004
 125133856.682 6  97506905.87144  23812182.668                    23812180.8384
        41.700          25.0004
 115075996.677 8  89669619.41146  21898227.135                    21898225.1264
        49.900          38.2004
 126721245.643 6  98743832.56343  24114250.644                    24114252.0094
        37.200          23.3004
 121864885.125 7  94959660.06445  23190116.167                    23190112.6824
        44.700          31.0004
 111155204.918 8  86614448.00746  21152121.517                    21152119.9664
        50.000          41.2004
 118625535.506 7  92435506.35545  22573674.523                    22573673.8604
        45.000          32.6004
 16  1 15  0  0 19.0000000  0  8G23G16G32G09G06G07G03G26
 108352251.059 8  84430340.69847  20618737.062                    20618730.2834
        51.400          42.4004
 111246152.204 8  86685316.52046  21169425.974                    21169420.8044
        49.100          38.9004
 125137283.988 6  97509576.49844  23812834.786                    23812832.9494
        41.500          25.0004
 115073797.048 8  89667905.41846  21897808.338                    21897806.5424
        49.200          38.2004
 126721815.595 6  98744276.68143  24114359.418                    24114360.4104
        37.200          23.3004
 121862269.996 7  94957622.30345  23189618.792                    23189615.0114
        46.000          31.0004
 111157568.195 8  86616289.52346  21152571.490                    21152569.7084
        49.100          41.2004
 118627338.360 7  92436911.17645  22574017.588                    22574016.9744
        44.000          32.6004
 16  1 15  0  0 20.0000000  0  8G23G16G32G09G06G07G03G26
 108351506.653 8  84429760.63947  20618595.366                    20618588.6364
        52.900          42.4004
 111245959.925 8  86685166.69246  21169389.303                    21169384.1234
        50.800          38.9004
 125140711.481 6  97512247.26944  23813487.003                    23813485.1884
        41.500          25.0004
 115071597.545 8  89666191.52246  21897389.703                    21897388.0774
        48.100          38.2004
 126722386.130 6  98744721.25643  24114467.885                    24114469.1034
        37.200          23.3004
 121859655.113 7  94955584.73445  23189120.742                    23189117.3904
        45.500          31.0004
 111159931.972 8  86618131.42646  21153021.138                    21153019.4434
        50.500          41.3004
 118629141.829 7  92438316.47845  22574360.811                    22574360.0594
        45.300          32.6004
 16  1 15  0  0 21.0000000  0  8G23G16G32G09G06G07G03G26
 108350762.509 8  84429180.78547  20618453.804                    20618447.0374
        51.800          42.7004
 111245768.361 8  86685017.42046  21169352.756                    21169347.6694
        50.600          38.7004
 125144139.106 6  97514918.14444  23814139.504                    23814137.5644
        41.500          25.0004
 115069398.170 8  89664477.72446  21896970.983                    21896969.5524
        48.600          38.1004
 126722957.169 6  98745166.22343  24114576.906                    24114577.8164
        37.200          23.3004
 121857040.442 7  94953547.32945  23188623.156                    23188619.7914
        45.500          31.0004
 111162296.236 8  86619973.71046  21153471.149                    21153469.4074
        50.500          41.3004
 118630945.821 7  92439722.18645  22574704.238                    22574703.4344
        45.800          32.6004
 16  1 15  0  0 22.0000000  0  8G23G16G32G09G06G07G03G26
 108350018.744 8  84428601.22847  20618312.235                    20618305.4474
        51.800          42.7004
 111245577.618 8  86684868.78946  21169316.290                    21169311.3734
        49.200          38.7004
 125147566.977 6  97517589.21144  23814791.304                    23814789.8454
        41.400          25.0004
 115067199.056 8  89662764.13146  21896552.629                    21896551.0904
        48.200          38.1004
 126723528.871 6  98745611.70543  24114685.466                    24114686.6114
        37.200          23.3004
 121854426.108 7  94951510.18645  23188125.529                    23188122.2774
        45.700          31.0004
 111164661.093 8  86621816.45346  21153921.127                    21153919.3534
        50.000          41.0004
 118632750.483 7  92441128.41445  22575047.610                    22575046.8464
        45.700          32.6004
 16  1 15  0  0 23.0000000  0  8G23G16G32G09G06G07G03G26
 108349275.097 8  84428021.76447  20618170.735                    20618163.9304
        52.000          42.1004
 111245387.459 8  86684720.61446  21169280.209                    21169275.1344
        49.400          38.7004
 125150994.850 6  97520260.28044  23815443.825                    23815442.1644
        41.400          25.0004
 115064999.918 7  89661050.52046  21896134.156                    21896132.5094
        47.800          38.1004
 126724100.957 6  98746057.48843  24114794.251                    24114795.4524
        37.400          23.3004
 121851811.845 7  94949473.09945  23187628.098                    23187624.8084
        44.500          31.0004
 111167026.295 8  86623659.46746  21154371.206                    21154369.4824
        51.800          41.0004
 118634555.555 7  92442534.96445  22575390.999                    22575390.2764
        45.700          32.5004
 16  1 15  0  0 24.0000000  0  8G23G16G32G09G06G07G03G26
 108348531.773 8  84427442.55047  20618029.157                    20618022.4674
        52.200          42.5004
 111245198.077 8  86684573.04446  21169244.312                    21169239.1084
        51.300          38.7004
 125154422.888 6  97522931.47344  23816095.922                    23816094.3934
        41.400          25.0004
 115062800.967 8  89659337.05546  21895715.812                    21895714.0844
        48.000          38.1004
 126724673.635 6  98746503.73143  24114903.437                    24114904.3834
        37.400          23.3004
 121849197.863 7  94947436.23045  23187130.491                    23187127.4144
        45.600          31.0004
 111169392.043 8  86625502.91046  21154821.320                    21154819.6464
        51.100          41.3004
 118636361.223 7  92443941.98045  22575734.714                    22575733.9744
        45.200          32.5004
 16  1 15  0  0 25.0000000  0  8G23G16G32G09G06G07G03G26
 108347788.719 8  84426863.54647  20617887.590                    20617881.0724
        51.300          42.5004
 111245009.406 8  86684426.02946  21169208.465                    21169203.1864
        51.500          38.6004
 125157851.107 6  97525602.81044  23816748.738                    23816746.8574
        41.600          25.0004
 115060602.181 8  89657623.71846  21895297.423                    21895295.7204
        48.400          38.1004
 126725246.870 6  98746950.40843  24115012.668                    24115013.3554
        37.400          23.3004
 121846584.096 7  94945399.52845  23186633.083                    23186630.1514
        44.300          30.9004
 111171758.280 8  86627346.73046  21155271.550                    21155269.8734
        51.500          41.3004
 118638167.452 7  92445349.43245  22576078.730                    22576077.6214
        46.100          32.5004
 16  1 15  0  0 26.0000000  0  8G23G16G32G09G06G07G03G26
 108347045.991 8  84426284.79847  20617746.301                    20617739.8234
        51.700          42.4004
 111244821.520 8  86684279.62446  21169172.717                    21169167.4384
        51.400          38.6004
 125161279.539 6  97528274.31344  23817400.604                    23817399.3044
        41.600          25.0004
 115058403.566 8  89655910.51546  21894879.000                    21894877.3784
        48.300          38.1004
 126725820.669 6  98747397.52543  24115122.099                    24115122.5694
        37.400          23.3004
 121843970.608 7  94943363.04445  23186135.770                    23186132.7704
        45.200          30.9004
 111174125.048 8  86629190.96446  21155722.005                    21155720.3244
        50.200          41.3004
 118639974.319 7  92446757.38045  22576422.212                    22576421.5044
        45.700          32.5004
 16  1 15  0  0 27.0000000  0  8G23G16G32G09G06G07G03G26
 108346303.470 8  84425706.20947  20617604.907                    20617598.5864
        52.200          42.4004
 111244634.294 8  86684133.73546  21169136.977                    21169131.8114
        50.900          38.6004
 125164708.045 6  97530945.87344  23818053.424                    23818051.8024
        41.600          25.0004
 115056205.040 8  89654197.37946  21894460.666                    21894459.0274
        49.700          38.1004
 126726394.988 6  98747845.04743  24115231.526                    24115231.8084
        37.400          23.3004
 121841357.296 7  94941326.69845  23185638.722                    23185635.5644
        45.200          30.9004
 111176492.244 8  86631035.53346  21156172.388                    21156170.6824
        50.300          41.5004
 118641781.654 7  92448165.69345  22576766.138                    22576765.4544
        45.700          32.5004
 16  1 15  0  0 28.0000000  0  8G23G16G32G09G06G07G03G26
 108345561.279 8  84425127.87847  20617463.898                    20617457.3194
        52.200          42.5004
 111244447.858 8  86683988.45946  21169101.719                    21169096.3704
        50.900          38.5004
 125168136.746 6  97533617.58744  23818705.452                    23818704.2594
        41.700          25.0004
 115054006.697 8  89652484.38846  21894042.444                    21894040.7274
        49.000          38.1004
 126726969.867 6  98748293.00543  24115340.636                    24115341.3224
        37.400          23.3004
 121838744.270 7  94939290.57545  23185141.285                    23185138.3164
        45.100          30.9004
 111178859.994 8  86632880.53246  21156623.077                    21156621.3434
        51.900          41.5004
 118643589.613 7  92449574.49145  22577110.053                    22577109.6074
        45.700          32.5004
 16  1 15  0  0 29.0000000  0  8G23G16G32G09G06G07G03G26
 108344819.316 8  84424549.72547  20617322.635                    20617315.9474
        51.000          42.3004
 111244262.112 8  86683843.72446  21169066.197                    21169061.1004
        50.900          38.5004
 125171565.563 6  97536289.39044  23819358.275                    23819356.6804
        41.700          25.0004
 115051808.456 8  89650771.47646  21893624.212                    21893622.3104
        49.800          38.1004
 126727545.286 6  98748741.38543  24115449.421                    24115450.7234
        38.700          23.3004
 121836131.428 7  94937254.59445  23184643.921                    23184641.2084
        44.600          30.9004
 111181228.203 8  86634725.89046  21157073.794                    21157071.9054
        50.300          41.3004
 118645398.093 7  92450983.69745  22577454.559                    22577453.6504
        45.700          32.5004
 16  1 15  0  0 30.0000000  0  8G23G16G32G09G06G07G03G26
 108344077.668 8  84423971.81847  20617181.626                    20617174.8864
        50.900          42.7004
 111244077.139 8  86683699.59046  21169030.836                    21169025.8704
        51.100          38.5004
 125174994.590 6  97538961.35844  23820011.218                    23820009.1864
        41.700          25.0004
 115049610.411 8  89649058.71646  21893205.912                    21893204.0544
        49.500          38.1004
 126728121.262 6  98749190.19743  24115559.128                    24115560.3034
        38.700          23.3004
 121833518.867 7  94935218.83145  23184146.864                    23184144.0954
        43.700          30.9004
 111183596.938 8  86636571.66046  21157524.481                    21157522.7614
        50.700          41.3004
 118647207.180 7  92452393.37145  22577798.617                    22577797.8954
        45.900          32.5004
 16  1 15  0  0 31.0000000  0  8G23G16G32G09G06G07G03G26
 108343336.283 8  84423394.11547  20617040.412                    20617033.8274
        51.500          42.7004
 111243892.864 8  86683556.00046  21168995.955                    21168990.8204
        50.500          38.7004
 125178423.737 6  97541633.41644  23820663.683                    23820661.7564
        41.500          25.0004
 115047412.487 8  89647346.05046  21892787.771                    21892785.7624
        49.000          38.1004
 126728697.769 6  98749639.42543  24115669.087                    24115669.9244
        38.700          23.3004
 121830906.512 7  94933183.23045  23183650.033                    23183646.9854
        45.600          30.9004
 111185966.139 8  86638417.79146  21157975.367                    21157973.6184
        50.000          41.2004
 118649016.794 7  92453803.45945  22578142.861                    22578142.3094
        45.400          32.5004
 16  1 15  0  0 32.0000000  0  8G23G16G32G09G06G07G03G26
 108342595.160 8  84422816.61647  20616899.389                    20616892.6794
        52.700          42.8004
 111243709.323 8  86683412.98046  21168960.861                    21168955.8404
        51.000          38.7004
 125181853.017 6  97544305.57944  23821316.004                    23821314.3874
        41.500          24.4004
 115045214.698 8  89645633.48846  21892369.652                    21892367.5674
        49.600          38.1004
 126729274.818 6  98750089.07543  24115778.897                    24115779.7284
        38.700          23.3004
 121828294.367 7  94931147.78945  23183152.865                    23183149.9444
        45.600          30.9004
 111188335.842 8  86640264.30946  21158426.109                    21158424.4674
        50.800          41.2004
 118650826.966 7  92455213.98345  22578487.104                    22578486.7994
        45.100          32.5004
 16  1 15  0  0 33.0000000  0  8G23G16G32G09G06G07G03G26
 108341854.359 8  84422239.36747  20616758.547                    20616751.7364
        51.700          42.5004
 111243526.584 8  86683270.58646  21168926.119                    21168921.0734
        50.400          38.7004
 125185282.486 6  97546977.89044  23821968.807                    23821966.9524
        41.500          24.4004
 115043017.077 8  89643921.05746  21891951.628                    21891949.3674
        48.000          38.2004
 126729852.469 6  98750539.19243  24115888.936                    24115889.6684
        38.700          23.3004
 121825682.500 7  94929112.56645  23182655.620                    23182652.8914
        46.200          30.9004
 111190706.083 8  86642111.25046  21158877.198                    21158875.4894
        50.700          41.2004
 118652637.764 7  92456624.99445  22578831.911                    22578831.2364
        45.500          32.5004
 16  1 15  0  0 34.0000000  0  8G23G16G32G09G06G07G03G26
 108341113.787 8  84421662.29747  20616617.484                    20616610.8494
        52.200          42.3004
 111243344.519 8  86683128.71846  21168891.425                    21168886.4184
        50.000          38.7004
 125188712.058 6  97549650.28244  23822621.380                    23822619.6564
        41.800          24.4004
 115040819.582 7  89642208.72346  21891533.413                    21891531.2104
        47.900          38.2004
 126730430.623 6  98750989.70343  24115998.851                    24115999.6194
        38.700          23.3004
 121823070.825 7  94927077.49245  23182158.830                    23182155.8404
        46.000          30.9004
 111193076.762 8  86643958.53146  21159328.381                    21159326.6854
        50.300          41.4004
 118654449.040 7  92458036.37845  22579176.360                    22579176.0034
        44.800          32.5004
 16  1 15  0  0 35.0000000  0  8G23G16G32G09G06G07G03G26
 108340373.494 8  84421085.44447  20616476.796                    20616469.9304
        51.500          42.6004
 111243163.197 8  86682987.42946  21168856.910                    21168851.8864
        50.200          38.7004
 125192141.813 6  97552322.81644  23823273.887                    23823272.2874
        41.800          24.4004
 115038622.213 8  89640496.48946  21891115.006                    21891113.1464
        49.600          38.2004
 126731009.319 6  98751440.63643  24116108.885                    24116109.6694
        37.900          23.3004
 121820459.381 7  94925042.60045  23181661.683                    23181658.9074
        45.000          30.9004
 111195447.934 8  86645806.19646  21159779.459                    21159777.8694
        49.500          41.4004
 118656260.922 7  92459448.23645  22579521.307                    22579520.8074
        44.800          32.5004
 16  1 15  0  0 36.0000000  0  8G23G16G32G09G06G07G03G26
 108339633.454 8  84420508.78947  20616335.855                    20616329.1914
        51.300          42.6004
 111242982.574 8  86682846.68346  21168822.444                    21168817.5044
        48.100          38.7004
 125195571.678 6  97554995.43644  23823926.795                    23823925.0084
        41.800          24.4004
 115036425.001 7  89638784.37846  21890697.019                    21890695.0354
        47.900          38.1004
 126731588.543 6  98751891.97843  24116219.111                    24116219.8584
        37.900          23.3004
 121817848.140 7  94923007.86745  23181164.984                    23181162.0044
        45.500          30.9004
 111197819.594 8  86647654.24546  21160230.836                    21160229.1394
        50.900          40.9004
 118658073.316 7  92460860.48945  22579865.848                    22579865.6424
        45.700          32.4004
 16  1 15  0  0 37.0000000  0  8G23G16G32G09G06G07G03G26
 108338893.805 8  84419932.44047  20616195.038                    20616188.4864
        52.400          42.4004
 111242802.789 8  86682706.59346  21168788.489                    21168783.2824
        50.200          38.7004
 125199001.803 6  97557668.25744  23824579.664                    23824577.7464
        41.300          24.4004
 115034228.024 8  89637072.45146  21890278.843                    21890277.0024
        49.400          38.1004
 126732168.414 6  98752343.82543  24116329.499                    24116330.2864
        37.900          23.3004
 121815237.240 7  94920973.40045  23180668.328                    23180665.0894
        45.500          30.9004
 111200191.850 8  86649502.75646  21160682.147                    21160680.5434
        50.600          40.9004
 118659886.377 7  92462273.26345  22580210.778                    22580210.6984
        44.900          32.4004
 16  1 15  0  0 38.0000000  0  8G23G16G32G09G06G07G03G26
 108338154.471 8  84419356.33547  20616054.397                    20616047.7774
        52.500          42.5004
 111242623.791 8  86682567.11446  21168754.339                    21168749.1834
        51.400          38.7004
 125202432.131 6  97560341.23544  23825232.225                    23825230.5754
        41.300          24.4004
 115032031.218 8  89635360.65546  21889860.752                    21889858.8584
        49.000          38.1004
 126732748.907 6  98752796.15843  24116440.039                    24116440.7514
        37.900          23.3004
 121812626.613 7  94918939.14645  23180171.526                    23180168.2774
        45.000          30.9004
 111202564.644 8  86651351.68746  21161133.452                    21161131.9844
        50.500          41.1004
 118661700.104 7  92463686.55645  22580556.149                    22580555.8434
        44.800          32.4004
 16  1 15  0  0 39.0000000  0  8G23G16G32G09G06G07G03G26
 108337415.346 8  84418780.39347  20615913.547                    20615907.0694
        51.900          42.6004
 111242445.445 8  86682428.14446  21168720.474                    21168715.3144
        51.100          38.7004
 125205862.538 6  97563014.27644  23825884.717                    23825883.3574
        41.300          24.4004
 115029834.510 8  89633648.93646  21889442.730                    21889440.8314
        49.100          38.1004
 126733329.830 6  98753248.82443  24116550.580                    24116551.3134
        37.900          23.3004
 121810016.145 7  94916905.01345  23179674.830                    23179671.5444
        45.800          31.4004
 111204937.868 8  86653200.95346  21161585.122                    21161583.6634
        50.100          41.1004
 118663514.265 7  92465100.18845  22580901.433                    22580901.1254
        44.800          32.4004
 16  1 15  0  0 40.0000000  0  8G23G16G32G09G06G07G03G26
 108336676.472 8  84418204.64847  20615773.041                    20615766.4694
        52.300          42.6004
 111242267.812 8  86682289.73046  21168686.708                    21168681.4624
        50.300          38.7004
 125209293.090 6  97565687.43144  23826537.829                    23826536.1334
        40.900          24.4004
 115027637.915 8  89631937.30446  21889024.729                    21889022.8424
        49.200          38.1004
 126733911.298 6  98753701.91443  24116661.112                    24116661.9964
        37.900          23.3004
 121807405.899 7  94914871.05545  23179178.339                    23179174.8634
        45.100          31.4004
 111207311.563 8  86655050.58546  21162036.792                    21162035.4384
        50.200          41.3004
 118665328.986 7  92466514.25645  22581246.752                    22581246.4894
        45.500          32.4004
 16  1 15  0  0 41.0000000  0  8G23G16G32G09G06G07G03G26
 108335937.803 8  84417629.06147  20615632.379                    20615625.9624
        51.500          42.5004
 111242090.825 8  86682151.82046  21168652.998                    21168647.7654
        50.000          38.5004
 125212723.713 6  97568360.63844  23827190.436                    23827188.9074
        40.900          24.4004
 115025441.389 8  89630225.72646  21888606.714                    21888604.7774
        49.400          38.1004
 126734493.230 6  98754155.36443  24116772.082                    24116772.7434
        37.700          23.3004
 121804795.786 7  94912837.20245  23178681.602                    23178678.2154
        45.500          31.4004
 111209685.675 8  86656900.54246  21162488.612                    21162487.2704
        50.400          41.3004
 118667144.191 7  92467928.70045  22581592.277                    22581591.9294
        45.400          32.4004
 16  1 15  0  0 42.0000000  0  8G23G16G32G09G06G07G03G26
 108335199.494 8  84417053.75647  20615492.018                    20615485.4814
        52.800          42.5004
 111241914.653 8  86682014.54446  21168619.429                    21168614.2274
        49.600          38.5004
 125216154.571 6  97571034.03344  23827843.577                    23827841.9124
        40.900          24.4004
 115023245.100 8  89628514.33546  21888188.751                    21888186.8874
        48.700          38.1004
 126735075.822 6  98754609.33243  24116882.948                    24116883.6444
        37.700          23.3004
 121802186.003 7  94910803.60745  23178184.990                    23178181.6844
        45.700          31.4004
 111212060.353 8  86658750.93946  21162940.387                    21162939.1524
        50.500          41.2004
 118668960.027 7  92469343.63845  22581937.718                    22581937.4434
        45.200          32.4004
 16  1 15  0  0 43.0000000  0  8G23G16G32G09G06G07G03G26
 108334461.451 8  84416478.65647  20615351.562                    20615345.0114
        52.100          42.6004
 111241739.212 8  86681877.83546  21168586.116                    21168580.8514
        49.900          38.5004
 125219585.578 6  97573707.54244  23828496.467                    23828494.7544
        41.500          24.4004
 115021048.933 8  89626803.03846  21887770.720                    21887768.9804
        48.600          38.3004
 126735658.895 6  98755063.67343  24116994.088                    24116994.6544
        37.700          23.3004
 121799576.437 7  94908770.17945  23177688.425                    23177685.0704
        45.600          31.4004
 111214435.527 8  86660601.72646  21163392.356                    21163391.0634
        49.800          41.2004
 118670776.426 7  92470759.01145  22582283.212                    22582283.1884
        45.200          32.4004
 16  1 15  0  0 44.0000000  0  8G23G16G32G09G06G07G03G26
 108333723.710 8  84415903.79447  20615211.097                    20615204.6464
        52.700          42.6004
 111241564.513 8  86681741.70646  21168552.850                    21168547.7194
        49.200          38.5004
 125223016.715 6  97576381.15244  23829148.942                    23829147.5724
        41.500          24.4004
 115018852.940 8  89625091.87546  21887352.848                    21887351.0044
        49.000          38.3004
 126736242.578 6  98755518.48943  24117105.032                    24117105.7804
        37.700          23.3004
 121796967.116 7  94906736.94245  23177191.759                    23177188.6154
        45.600          31.4004
 111216811.220 8  86662452.91346  21163844.649                    21163843.1294
        49.800          40.9004
 118672593.413 7  92472174.84545  22582629.044                    22582628.8704
        44.700          32.4004
 16  1 15  0  0 45.0000000  0  8G23G16G32G09G06G07G03G26
 108332986.315 8  84415329.19947  20615070.822                    20615064.3584
        52.000          42.5004
 111241390.610 8  86681606.19846  21168519.682                    21168514.6824
        49.200          38.7004
 125226448.110 6  97579054.96644  23829802.172                    23829800.3734
        41.700          24.4004
 115016657.155 7  89623380.87646  21886935.033                    21886933.1734
        47.800          38.3004
 126736826.860 6  98755973.77243  24117216.469                    24117216.9614
        37.700          23.3004
 121794358.088 7  94904703.93645  23176695.674                    23176692.1314
        46.300          31.4004
 111219187.456 8  86664304.52346  21164296.573                    21164295.3604
        50.500          41.1004
 118674411.014 7  92473591.15845  22582975.079                    22582974.7094
        45.300          32.4004
 16  1 15  0  0 46.0000000  0  8G23G16G32G09G06G07G03G26
 108332249.104 8  84414754.74847  20614930.702                    20614924.0094
        52.000          42.3004
 111241217.368 8  86681471.20546  21168486.682                    21168481.5704
        50.300          38.7004
 125229879.563 6  97581728.82344  23830454.953                    23830453.2994
        41.700          24.4004
 115014461.428 8  89621669.92146  21886517.290                    21886515.2994
        48.400          38.3004
 126737411.595 6  98756429.41043  24117327.517                    24117328.0454
        38.600          23.3004
 121791749.225 7  94902671.05645  23176199.086                    23176195.6754
        46.500          31.4004
 111221564.125 8  86666156.47446  21164749.004                    21164747.5334
        50.400          41.1004
 118676229.117 7  92475007.86245  22583320.847                    22583320.7204
        45.800          32.4004
 16  1 15  0  0 47.0000000  0  8G23G16G32G09G06G07G03G26
 108331512.200 8  84414180.53747  20614790.533                    20614783.7534
        52.300          42.3004
 111241044.873 8  86681336.79346  21168453.965                    21168448.8514
        50.500          38.7004
 125233311.183 6  97584402.81144  23831108.549                    23831106.3134
        41.700          24.4004
 115012265.876 8  89619959.10546  21886099.432                    21886097.5544
        49.000          38.6004
 126737996.898 6  98756885.49243  24117439.000                    24117439.3654
        38.600          23.3004
 121789140.618 7  94900638.37545  23175702.697                    23175699.2754
        46.600          31.4004
 111223941.300 8  86668008.81646  21165201.267                    21165199.9374
        50.200          40.8004
 118678047.780 7  92476425.00345  22583667.085                    22583666.8194
        45.400          32.4004
 16  1 15  0  0 48.0000000  0  8G23G16G32G09G06G07G03G26
 108330775.558 8  84413606.52947  20614650.378                    20614643.6034
        51.400          42.4004
 111240873.104 8  86681202.95046  21168421.292                    21168416.0564
        50.500          38.5004
 125236742.966 6  97587076.92544  23831761.358                    23831759.3364
        41.700          24.4004
 115010070.447 8  89618248.38246  21885681.699                    21885679.7814
        49.800          38.6004
 126738582.752 6  98757342.00443  24117550.469                    24117550.8894
        38.600          23.3004
 121786532.215 7  94898605.85545  23175206.578                    23175202.8334
        46.200          31.4004
 111226318.964 8  86669861.54046  21165653.491                    21165652.3694
        51.300          40.8004
 118679867.023 7  92477842.59445  22584013.251                    22584013.1314
        45.400          32.4004
 16  1 15  0  0 49.0000000  0  8G23G16G32G09G06G07G03G26
 108330039.147 8  84413032.70147  20614510.159                    20614503.5274
        49.800          42.4004
 111240702.024 8  86681069.64046  21168388.741                    21168383.3994
        50.100          38.5004
 125240174.845 6  97589751.11544  23832414.781                    23832412.4704
        41.700          24.4004
 115007875.143 8  89616537.76046  21885263.877                    21885262.0604
        49.100          38.6004
 126739169.089 6  98757798.89243  24117661.869                    24117662.5384
        38.600          23.3004
 121783924.030 7  94896573.50145  23174710.514                    23174706.3434
        46.500          31.4004
 111228697.093 8  86671714.62746  21166106.113                    21166104.9154
        49.000          40.8004
 118681686.765 7  92479260.57645  22584359.483                    22584359.3834
        43.800          32.4004
 16  1 15  0  0 50.0000000  0  8G23G16G32G09G06G07G03G26
 108329303.085 8  84412459.14547  20614370.312                    20614363.4364
        52.200          42.7004
 111240531.727 8  86680936.94146  21168356.438                    21168351.0874
        49.900          38.5004
 125243606.939 6  97592425.47344  23833067.868                    23833065.5714
        41.700          24.4004
 115005680.035 8  89614827.28646  21884846.370                    21884844.2784
        48.600          38.6004
 126739756.070 6  98758256.28043  24117773.464                    24117774.2304
        38.600          23.3004
 121781316.104 7  94894541.35045  23174214.350                    23174210.0704
        46.100          31.4004
 111231075.762 8  86673568.13646  21166558.862                    21166557.5294
        49.700          40.8004
 118683507.142 7  92480679.05245  22584705.715                    22584705.7304
        45.000          32.4004
 16  1 15  0  0 51.0000000  0  8G23G16G32G09G06G07G03G26
 108328567.262 8  84411885.77747  20614230.190                    20614223.3674
        52.400          42.5004
 111240362.148 8  86680804.80246  21168324.121                    21168318.7884
        50.100          38.6004
 125247039.149 6  97595099.91944  23833720.960                    23833718.7344
        41.700          24.4004
 115003485.052 8  89613116.91246  21884428.659                    21884426.5704
        49.200          38.3004
 126740343.534 6  98758714.04143  24117885.292                    24117885.9104
        38.600          23.3004
 121778708.411 7  94892509.38245  23173718.064                    23173713.8714
        44.700          31.4004
 111233454.903 8  86675422.01046  21167011.588                    21167010.1754
        50.100          41.0004
 118685328.039 7  92482097.93345  22585052.308                    22585052.2884
        45.100          32.4004
 16  1 15  0  0 52.0000000  0  8G23G16G32G09G06G07G03G26
 108327831.747 8  84411312.64747  20614090.187                    20614083.4434
        50.500          42.6004
 111240193.302 8  86680673.23646  21168292.140                    21168286.5904
        49.700          38.6004
 125250471.529 6  97597774.49944  23834374.179                    23834371.9494
        41.700          24.4004
 115001290.219 8  89611406.65446  21884010.966                    21884008.8824
        49.400          38.3004
 126740931.568 6  98759172.25043  24117996.637                    24117997.7834
        38.400          23.3004
 121776100.944 7  94890477.59145  23173221.677                    23173217.7774
        46.200          31.4004
 111235834.549 8  86677276.27846  21167464.483                    21167462.9554
        50.800          41.0004
 118687149.527 7  92483517.27445  22585399.023                    22585398.9304
        45.100          32.4004
 16  1 15  0  0 53.0000000  0  8G23G16G32G09G06G07G03G26
 108327096.596 8  84410739.80147  20613950.298                    20613943.6244
        52.200          42.6004
 111240025.285 8  86680542.31546  21168260.085                    21168254.5894
        48.900          38.6004
 125253904.143 7  97600449.26144  23835027.286                    23835025.0834
        42.200          24.4004
 114999095.638 8  89609696.59246  21883593.191                    21883591.3704
        48.900          38.3004
 126741520.263 6  98759630.97243  24118109.042                    24118109.7724
        38.400          21.9004
 121773493.835 7  94888446.07845  23172725.505                    23172721.5774
        46.500          31.4004
 111238214.777 8  86679131.00046  21167917.471                    21167915.9394
        50.800          41.1004
 118688971.665 7  92484937.12045  22585745.742                    22585745.5854
        45.900          32.4004
 16  1 15  0  0 54.0000000  0  8G23G16G32G09G06G07G03G26
 108326361.637 8  84410167.10747  20613810.468                    20613803.7484
        51.500          42.8004
 111239857.920 8  86680411.90346  21168228.222                    21168222.7834
        50.000          38.6004
 125257336.861 7  97603124.10444  23835680.138                    23835678.3134
        42.200          24.4004
 114996901.106 8  89607986.56946  21883175.794                    21883173.6324
        49.000          38.4004
 126742109.389 6  98760090.02943  24118221.315                    24118221.8514
        38.400          21.9004
 121770886.845 7  94886414.65845  23172229.025                    23172225.5794
        46.800          31.4004
 111240595.425 8  86680986.05146  21168370.490                    21168368.9994
        50.000          41.1004
 118690794.304 7  92486357.35845  22586093.190                    22586092.4074
        44.800          32.4004
 16  1 15  0  0 55.0000000  0  8G23G16G32G09G06G07G03G26
 108325626.902 8  84409594.58547  20613670.612                    20613663.9064
        52.500          42.7004
 111239691.241 8  86680282.02446  21168196.193                    21168191.1184
        50.400          38.6004
 125260769.660 7  97605799.01244  23836333.417                    23836331.6174
        42.200          24.4004
 114994706.666 8  89606276.62046  21882758.065                    21882756.1264
        50.000          38.4004
 126742699.015 6  98760549.47643  24118333.406                    24118333.8764
        38.400          21.9004
 121768280.052 7  94884383.39145  23171732.776                    23171729.4834
        46.800          31.5004
 111242976.510 8  86682841.44146  21168823.640                    21168822.0934
        50.400          40.9004
 118692617.441 7  92487777.98545  22586439.479                    22586439.3044
        44.900          32.4004
 16  1 15  0  0 56.0000000  0  8G23G16G32G09G06G07G03G26
 108324892.495 8  84409022.31847  20613530.830                    20613524.2024
        51.900          42.6004
 111239525.331 8  86680152.74546  21168164.732                    21168159.6174
        49.900          38.6004
 125264202.624 6  97608474.04844  23836986.845                    23836984.9134
        41.700          24.4004
 114992512.430 8  89604566.82946  21882340.772                    21882338.5414
        49.900          38.4004
 126743289.252 6  98761009.40143  24118445.620                    24118446.2514
        38.400          21.9004
 121765673.517 7  94882352.32945  23171236.922                    23171233.5594
        45.700          31.5004
 111245358.147 8  86684697.26046  21169276.804                    21169275.2784
        50.100          40.9004
 118694441.183 7  92489199.08045  22586786.858                    22586786.3414
        44.900          32.4004
 16  1 15  0  0 57.0000000  0  8G23G16G32G09G06G07G03G26
 108324158.384 8  84408450.28247  20613391.253                    20613384.4624
        52.200          42.6004
 111239360.162 8  86680024.04546  21168133.314                    21168128.1644
        49.100          38.6004
 125267635.785 6  97611149.23744  23837640.303                    23837638.2094
        41.700          24.4004
 114990318.356 8  89602857.16146  21881923.178                    21881920.9454
        49.000          38.4004
 126743880.060 6  98761469.76943  24118557.829                    24118558.8454
        38.100          21.9004
 121763067.244 7  94880321.46745  23170740.827                    23170737.4764
        45.500          31.5004
 111247740.285 8  86686553.47246  21169730.181                    21169728.6034
        49.500          40.8004
 118696265.467 7  92490620.59845  22587134.156                    22587133.5124
        45.200          32.4004
 16  1 15  0  0 58.0000000  0  8G23G16G32G09G06G07G03G26
 108323424.526 8  84407878.44747  20613251.351                    20613244.8924
        52.900          42.7004
 111239195.713 8  86679895.90246  21168102.040                    21168096.8814
        48.900          38.6004
 125271069.050 6  97613824.50844  23838293.464                    23838291.5714
        41.700          24.4004
 114988124.392 8  89601147.58146  21881505.545                    21881503.4644
        49.100          38.3004
 126744471.366 6  98761930.52543  24118670.730                    24118671.3434
        38.100          21.9004
 121760461.169 7  94878290.76145  23170244.883                    23170241.4754
        45.200          31.5004
 111250122.890 8  86688410.04546  21170183.627                    21170181.9874
        50.600          40.8004
 118698090.354 7  92492042.58845  22587481.190                    22587480.6884
        44.000          32.4004
 16  1 15  0  0 59.0000000  0  8G23G16G32G09G06G07G03G26
 108322691.012 8  84407306.87747  20613111.978                    20613105.2614
        52.700          42.6004
 111239032.068 8  86679768.38746  21168070.741                    21168065.8514
        49.700          38.6004
 125274502.551 6  97616499.96144  23838946.804                    23838944.9164
        41.600          24.4004
 114985930.647 8  89599438.17146  21881088.321                    21881085.9624
        49.100          38.3004
 126745063.289 6  98762391.76143  24118783.547                    24118783.9684
        38.100          21.9004
 121757855.407 7  94876260.30045  23169749.032                    23169745.6264
        45.000          31.5004
 111252506.057 8  86690267.06046  21170637.102                    21170635.4434
        50.100          40.9004
 118699915.826 7  92493465.03145  22587828.358                    22587828.0894
        45.000          32.4004
 16  1 15  0  1  0.0000000  0  8G23G16G32G09G06G07G03G26
