     2.11           OBSERVATION DATA    G (GPS)             RINEX VERSION / TYPE
teqc  2015Nov6      NGS Web User        20160202 00:05:11UTCPGM / RUN BY / DATE
Solaris x86 5.10|AMD64|cc SC5.8 -xarch=amd64|=+|=+          COMMENT
teqc  2015Nov6      NOAA/NOS/NGS/CORS   20160201 12:45:14UTCCOMMENT
teqc  2015Nov6      UNAVCO Archive Ops  20160201 12:34:54UTCCOMMENT
BIT 2 OF LLI FLAGS DATA COLLECTED UNDER A/S CONDITION       COMMENT
input file: seat201602011100f.bnx                           COMMENT
 hourly file                                                COMMENT
RINEX file created by UNAVCO GPS Archive.                   COMMENT
For more information contact archive@unavco.org             COMMENT
Monument ID: 18010                                          COMMENT
UNAVCO 4-char name:   SEAT                                  COMMENT
4-char name from Log or data file: SEAT                     COMMENT
Monument location: 47.653977 -122.309476 44.2292            COMMENT
Visit ID: 101410                                            COMMENT
End of DB comments                                          COMMENT
 SNR is mapped to RINEX snr flag value [0-9]                COMMENT
  L1 & L2: min(max(int(snr_dBHz/6), 0), 9)                  COMMENT
teqc edited: all SBAS satellites excluded                   COMMENT
teqc edited: all Compass satellites excluded                COMMENT
teqc edited: all QZSS satellites excluded                   COMMENT
SEAT                                                        MARKER NAME
40457M002                                                   MARKER NUMBER
UW                  University of Washington                OBSERVER / AGENCY
4552261579          TRIMBLE NETRS       1.3-0               REC # / TYPE / VERS
0220061145          TRM29659.00     UNAV                    ANT # / TYPE
 -2300592.8570 -3637848.2430  4691079.2150                  APPROX POSITION XYZ
        0.1233        0.0000        0.0000                  ANTENNA: DELTA H/E/N
     1     1                                                WAVELENGTH FACT L1/2
     7    L1    L2    C1    P2    P1    S1    S2            # / TYPES OF OBSERV
     1.0000                                                 INTERVAL
teqc windowed: start @ 2016 Feb  1 12:00:00.000             COMMENT
teqc windowed:  end  @ 2016 Feb  1 13:00:00.000             COMMENT
teqc edited: all GLONASS satellites excluded                COMMENT
  2016     2     1    12     0    0.0000000     GPS         TIME OF FIRST OBS
                                                            END OF HEADER
 16  2  1 12  0  0.0000000  0 10G26G20G02G29G13G05G21G25G18G16
 120191579.842 6  93655745.01244  22871696.761    22871687.5754
        41.100          29.7004
 108423317.255 7  84485657.87846  20632269.426    20632256.1364
        47.900          38.8004
 126625361.144 6  98669062.13743  24096003.453    24095988.7574
        36.900          19.6004
 105263289.111 8  82023310.90647  20030935.032    20030922.5634
        50.200          45.3004
 131147566.242 5                  24956552.483
        34.300
 113435526.661 7  88391283.24146  21586060.509    21586047.9814
        47.800          38.0004
 119568586.466 7  93170264.67444  22753143.690    22753129.8734
        43.700          29.3004
 120734733.757 7  94078981.29244  22975056.208    22975045.0284
        42.600          28.8004
 128544993.746 5                  24461299.604
        33.700
                                  24682347.392
        29.100
                            4 19
RINEX FILE SPLICE                                           COMMENT
teqc  2015Nov6      NOAA/NOS/NGS/CORS   20160201 13:44:35UTCCOMMENT
teqc  2015Nov6      UNAVCO Archive Ops  20160201 13:40:22UTCCOMMENT
BIT 2 OF LLI FLAGS DATA COLLECTED UNDER A/S CONDITION       COMMENT
input file: seat201602011200f.bnx                           COMMENT
 hourly file                                                COMMENT
RINEX file created by UNAVCO GPS Archive.                   COMMENT
For more information contact archive@unavco.org             COMMENT
Monument ID: 18010                                          COMMENT
UNAVCO 4-char name:   SEAT                                  COMMENT
4-char name from Log or data file: SEAT                     COMMENT
Monument location: 47.653977 -122.309476 44.2292            COMMENT
Visit ID: 101410                                            COMMENT
End of DB comments                                          COMMENT
 SNR is mapped to RINEX snr flag value [0-9]                COMMENT
  L1 & L2: min(max(int(snr_dBHz/6), 0), 9)                  COMMENT
teqc edited: all SBAS satellites excluded                   COMMENT
teqc edited: all Compass satellites excluded                COMMENT
teqc edited: all QZSS satellites excluded                   COMMENT
 16  2  1 12  0  1.0000000  0 10G26G20G02G29G13G05G21G25G18G16
 120189625.310 6  93654221.99644  22871324.682    22871315.1444
        41.300          29.0004
 108421606.040 8  84484324.46946  20631943.673    20631930.6184
        48.100          38.5004
 126628227.482 6  98671295.64343  24096548.895    24096533.9644
        36.900          19.6004
 105263354.946 8  82023362.20047  20030947.127    20030935.2454
        50.200          45.1004
 131144611.422 5                  24955989.385
        35.000
 113437277.287 7  88392647.36346  21586393.722    21586381.1364
        47.900          37.7004
 119566477.268 7  93168621.14344  22752741.947    22752728.3654
        43.900          29.6004
 120738233.589 7  94081708.43544  22975721.817    22975711.1064
        43.000          28.0004
 128541530.885 5                  24460640.922
        33.900
                                  24681734.146
        29.900
 16  2  1 12  0  2.0000000  0 10G26G20G02G29G13G05G21G25G18G16
 120187676.501 7  93652703.44444  22870953.897    22870944.3584
        42.000          28.6004
 108419900.543 8  84482995.51446  20631618.704    20631605.7074
        48.300          38.8004
 126631099.017 6  98673533.19243  24097095.640    24097080.6514
        36.800          19.6004
 105263426.367 8  82023417.85147  20030960.643    20030948.6434
        50.400          44.9004
 131141661.830 5                  24955428.747
        35.400
 113439033.606 8  88394015.92246  21586728.071    21586715.6604
        48.000          38.0004
 119564373.439 7  93166981.79044  22752341.775    22752328.4274
        44.200          29.5004
 120741738.823 7  94084439.78844  22976388.523    22976377.9884
        42.800          27.7004
 128538073.246 5                  24459983.215
        34.300
 129700170.23314                  24681121.773
        28.900
 16  2  1 12  0  3.0000000  0 10G26G20G02G29G13G05G21G25G18G16
 120185726.436 6  93651183.91644  22870582.872    22870573.5104
        41.900          29.3004
 108418193.853 8  84481665.62646  20631294.248    20631281.1934
        48.200          39.0004
 126633968.821 6  98675769.40543  24097641.687    24097626.7564
        37.000          19.3004
 105263496.501 8  82023472.50347  20030974.248    20030962.2484
        50.200          45.1004
 131138710.669 5                  24954867.223
        34.200
 113440788.737 8  88395383.55246  21587062.745    21587049.3384
        48.000          38.1004
 119562267.996 7  93165341.18844  22751940.723    22751927.4924
        44.100          29.8004
 120745242.531 7  94087169.94644  22977055.571    22977044.8604
        42.600          28.0004
 128534613.931 5                  24459324.501
        34.000
 129696951.605 4                  24680509.184
        29.100
 16  2  1 12  0  4.0000000  0 10G26G20G02G29G13G05G21G25G18G16
 120183776.957 6  93649664.84244  22870212.519    22870202.8634
        41.900          29.5004
 108416487.748 8  84480336.19646  20630969.803    20630956.1044
        48.100          38.8004
 126636838.718 6  98678005.68643  24098188.011    24098172.8464
        37.000          19.6004
 105263567.092 8  82023527.51247  20030987.745    20030975.5694
        50.600          45.2004
 131135759.638 5                  24954306.332
        33.900
 113442544.426 7  88396751.62046  21587396.460    21587383.5224
        47.700          37.8004
 119560162.799 7  93163700.77044  22751540.343    22751526.7024
        43.800          29.7004
 120748746.482 7  94089900.29644  22977722.104    22977711.7454
        42.600          27.7004
 128531154.705 5                  24458666.388
        33.900
 129693733.280 4                  24679895.185
        28.900
 16  2  1 12  0  5.0000000  0 10G26G20G02G29G13G05G21G25G18G16
 120181827.971 7  93648146.14844  22869841.141    22869831.8374
        42.100          28.7004
 108414782.191 8  84479007.18646  20630645.396    20630631.6964
        48.400          38.7004
 126639708.627 6  98680241.98443  24098734.728    24098719.2124
        37.700          19.6004
 105263638.105 8  82023582.84247  20031001.423    20030989.1884
        50.900          45.1004
 131132808.790 5                  24953744.787
        34.400
 113444300.658 7  88398120.12046  21587730.571    21587717.5164
        47.300          37.9004
 119558057.750 7  93162060.47244  22751139.460    22751125.9944
        43.500          29.9004
 120752250.667 7  94092630.83144  22978389.165    22978378.5134
        42.500          28.7004
 128527695.488 5                  24458007.782
        33.300
                                  24679283.796
        28.900
 16  2  1 12  0  6.0000000  0 10G26G20G02G29G13G05G21G25G18G16
 120179877.860 6  93646626.58444  22869470.790    22869460.5484
        41.700          28.5004
 108413075.520 8  84477677.31346  20630319.889    20630306.9514
        48.000          38.8004
 126642576.891 6  98682477.00143  24099280.947    24099264.8444
        37.300          19.9004
 105263707.926 8  82023637.25147  20031014.815    20031002.4054
        51.300          44.9004
 131129856.348 5                  24953183.034
        34.600
 113446055.780 7  88399487.74846  21588064.798    21588051.6254
        47.500          37.8004
 119555951.232 7  93160419.02444  22750738.579    22750725.2904
        43.800          29.3004
 120755753.368 7  94095360.21444  22979055.659    22979045.1244
        42.300          28.5004
 128524234.633 5                  24457349.601
        32.900
                                  24678670.187
        28.600
 16  2  1 12  0  7.0000000  0 10G26G20G02G29G13G05G21G25G18G16
 120177930.113 7  93645108.84944  22869099.577    22869090.1564
        42.000          28.3004
 108411371.254 7  84476349.31246  20629995.734    20629982.7374
        47.900          38.7004
 126645447.061 6  98684713.49743  24099826.693    24099811.1174
        37.400          20.1004
 105263780.000 8  82023693.41147  20031028.426    20031016.0744
        51.000          45.1004
 131126905.886 5                  24952621.785
        35.400
 113447813.265 7  88400857.21846  21588398.769    21588385.9484
        47.600          37.4004
 119553846.694 7  93158779.12644  22750337.852    22750324.7394
        43.800          29.3004
 120759258.173 7  94098091.22544  22979722.177    22979711.9364
        42.400          28.5004
 128520775.710 5                  24456691.109
        33.500
                                  24678060.140
        28.000
 16  2  1 12  0  8.0000000  0 10G26G20G02G29G13G05G21G25G18G16
 120175982.776 6  93643591.44444  22868728.607    22868719.5374
        41.500          28.4004
 108409667.455 7  84475021.67646  20629671.408    20629658.3534
        47.600          38.7004
 126648317.142 6  98686949.92443  24100373.358    24100357.2554
        37.400          20.1004
 105263852.448 8  82023749.86647  20031042.033    20031030.0334
        50.600          45.1004
 131123955.390 5                  24952060.606
        34.600
 113449571.204 7  88402227.04246  21588733.459    21588720.8734
        47.500          37.4004
 119551742.239 7  93157139.29544  22749937.628    22749924.5144
        43.700          29.7004
 120762763.085 7  94100822.32644  22980389.209    22980378.8504
        42.300          26.9004
 128517316.735 5                  24456033.816
        33.500
 129680858.21514                  24677446.814
        28.300
 16  2  1 12  0  9.0000000  0 10G26G20G02G29G13G05G21G25G18G16
 120174036.036 7  93642074.49744  22868358.724    22868349.0104
        42.000          28.7004
 108407964.289 7  84473694.53346  20629347.266    20629334.2114
        47.400          39.0004
 126651187.306 6  98689186.42543  24100919.247    24100903.9064
        37.300          20.1004
 105263925.387 8  82023806.70047  20031056.087    20031044.2044
        51.000          45.1004
 131121005.176 5                  24951498.663
        35.000
 113451329.746 7  88403597.33046  21589068.418    21589055.4224
        47.600          37.4004
 119549638.054 7  93155499.67644  22749537.164    22749523.8754
        43.900          28.9004
 120766268.329 7  94103553.68244  22981056.149    22981046.0244
        42.400          27.9004
 128513857.885 5                  24455375.858
        33.400
 129677641.360 4                  24676834.078
        26.400
 16  2  1 12  0 10.0000000  0 10G26G20G02G29G13G05G21G25G18G16
 120172089.858 7  93640558.00744  22867988.089    22867978.8444
        42.000          29.1004
 108406261.693 7  84472367.83246  20629023.673    20629010.4424
        47.600          38.9004
 126654057.574 6  98691422.99343  24101465.198    24101449.7404
        37.500          20.6004
 105263998.825 8  82023863.92647  20031069.972    20031057.6204
        50.900          44.9004
 131118055.105 5                  24950936.799
        34.800
 113453088.888 7  88404968.08846  21589402.760    21589390.1744
        47.500          37.7004
 119547534.064 7  93153860.20644  22749137.167    22749123.7604
        43.400          29.6004
 120769773.784 7  94106285.20644  22981724.055    22981712.9934
        42.200          27.6004
 128510399.081 5                  24454716.656
        32.900
                                  24676222.669
        26.400
 16  2  1 12  0 11.0000000  0 10G26G20G02G29G13G05G21G25G18G16
 120170144.301 7  93639041.98644  22867617.688    22867608.7944
        42.000          28.5004
 108404559.765 7  84471041.66246  20628699.655    20628685.9554
        47.500          39.2004
 126656927.999 6  98693659.67543  24102012.374    24101996.2724
        37.900          20.9004
 105264072.807 8  82023921.57347  20031083.989    20031071.5204
        50.900          45.1004
 131115105.269 5                  24950375.010
        34.500
 113454848.671 7  88406339.35046  21589737.597    21589725.1864
        47.800          37.4004
 119545430.359 7  93152220.95544  22748736.322    22748723.4424
        43.800          29.4004
 120773279.574 7  94109016.99244  22982391.315    22982380.1354
        42.400          27.7004
 128506940.449 5                  24454058.188
        33.300
                                  24675609.810
        26.800
 16  2  1 12  0 12.0000000  0 10G26G20G02G29G13G05G21G25G18G16
 120168199.279 6  93637526.39244  22867247.942    22867238.4034
        41.800          28.6004
 108402858.406 7  84469715.92746  20628375.999    20628362.2404
        47.700          39.0004
 126659798.404 6  98695896.35443  24102557.873    24102542.1224
        37.500          21.1004
 105264147.226 8  82023979.56247  20031098.122    20031086.0054
        50.600          45.1004
 131112155.578 5                  24949813.731
        34.400
 113456609.008 7  88407711.03546  21590072.680    21590059.9764
        47.900          37.6004
 119543326.837 7  93150581.85344  22748335.816    22748322.9954
        43.700          29.3004
 120776785.634 7  94111748.98344  22983058.233    22983047.5814
        42.400          28.0004
 128503481.907 5                  24453399.995
        32.800
                                  24674998.746
        26.800
 16  2  1 12  0 13.0000000  0 10G26G20G02G29G13G05G21G25G18G16
 120166254.615 7  93636011.06744  22866877.769    22866868.5244
        42.200          28.1004
 108401157.413 8  84468390.48146  20628052.011    20628038.8974
        48.000          39.0004
 126662668.713 6  98698132.94743  24103104.097    24103088.4634
        37.300          21.1004
 105264221.909 8  82024037.75747  20031112.479    20031100.3624
        50.700          45.2004
 131109205.794 5                  24949252.611
        34.600
 113458369.695 8  88409083.00146  21590407.410    21590394.8244
        48.100          37.4004
 119541223.290 7  93148942.72444  22747936.000    22747922.6524
        44.000          29.8004
 120780291.692 7  94114480.97344  22983724.901    22983714.4834
        42.100          27.8004
 128500023.199 5                  24452741.409
        33.000
                                  24674385.791
        27.600
 16  2  1 12  0 14.0000000  0 10G26G20G02G29G13G05G21G25G18G16
 120164310.909 7  93634496.48644  22866507.341    22866498.5064
        42.000          29.0004
 108399457.446 7  84467065.83246  20627728.740    20627715.2754
        47.900          38.9004
 126665539.482 6  98700369.91143  24103650.294    24103634.6604
        36.800          20.9004
 105264297.512 8  82024096.66447  20031126.827    20031114.4174
        50.400          45.0004
 131106256.630 5                  24948690.355
        34.100
 113460131.384 7  88410455.74546  21590743.060    21590730.2984
        47.700          37.7004
 119539120.413 7  93147304.11544  22747535.979    22747522.4554
        43.900          29.4004
 120783798.432 6  94117213.50744  22984392.592    22984381.9404
        41.800          27.0004
 128496565.001 5                  24452084.011
        33.600
 129661562.20414                  24673774.897
        26.800
 16  2  1 12  0 15.0000000  0  9G26G20G02G29G13G05G21G25G18
 120162367.339 6  93632982.02044  22866138.564    22866129.1434
        41.800          28.9004
 108397757.633 7  84465741.30046  20627404.975    20627391.6864
        47.600          38.8004
 126668409.905 6  98702606.60943  24104197.294    24104181.1914
        36.700          21.3004
 105264373.141 8  82024155.59747  20031141.525    20031129.1154
        51.000          44.9004
 131103307.167 5                  24948129.632
        34.600
 113461893.236 7  88411828.62046  21591078.229    21591065.5264
        47.900          37.6004
 119537017.288 7  93145665.31744  22747135.922    22747122.2224
        43.900          29.9004
 120787305.030 7  94119945.93044  22985060.156    22985049.5624
        42.200          27.5004
 128493106.453 5                  24451425.188
        33.800
 16  2  1 12  0 16.0000000  0  9G26G20G02G29G13G05G21G25G18
 120160424.627 6  93631468.21844  22865768.951    22865759.7064
        41.700          28.9004
 108396058.728 8  84464417.48246  20627082.137    20627068.7304
        48.100          38.8004
 126671280.705 6  98704843.59643  24104742.456    24104727.4084
        36.600          20.6004
 105264449.560 8  82024215.14747  20031156.242    20031143.6564
        50.600          45.1004
 131100358.245 5                  24947568.961
        34.900
 113463655.972 7  88413202.17946  21591413.517    21591400.6384
        47.900          37.3004
 119534914.693 7  93144026.92544  22746735.440    22746722.4444
        43.800          29.6004
 120790812.153 7  94122678.75644  22985726.813    22985716.8064
        42.100          26.7004
 128489648.294 5                  24450767.289
        32.800
 16  2  1 12  0 17.0000000  0  9G26G20G02G29G13G05G21G25G18
 120158482.427 6  93629954.82444  22865398.761    22865389.8674
        41.300          28.1004
 108394360.325 8  84463094.05246  20626759.130    20626745.5474
        48.200          38.6004
 126674151.483 6  98707080.57743  24105288.692    24105273.7614
        36.600          20.4004
 105264526.391 8  82024275.01247  20031170.332    20031157.9214
        50.800          45.3004
 131097409.345 5                  24947008.135
        35.000
 113465419.198 7  88414576.11946  21591749.309    21591736.6064
        47.700          37.6004
 119532812.224 7  93142388.64544  22746334.892    22746322.0724
        43.200          28.9004
 120794319.469 6  94125411.72044  22986394.319    22986384.0194
        41.500          27.8004
 128486190.215 5                  24450108.883
        33.200
 16  2  1 12  0 18.0000000  0  9G26G20G02G29G13G05G21G25G18
 120156540.610 6  93628441.71644  22865029.413    22865020.2264
        41.400          28.2004
 108392662.355 7  84461770.95646  20626435.835    20626422.4874
        47.800          38.8004
 126677022.160 6  98709317.46143  24105835.574    24105820.1164
        36.800          20.4004
 105264603.535 8  82024335.12447  20031185.406    20031173.2894
        50.900          45.1004
 131094460.467 5                  24946446.953
        35.900
 113467182.838 8  88415950.39246  21592084.893    21592072.2484
        48.000          37.5004
 119530709.779 7  93140750.37844  22745935.269    22745922.2724
        43.500          29.3004
 120797826.886 6  94128144.77544  22987061.089    22987051.4334
        41.600          28.0004
 128482731.975 5                  24449450.925
        33.400
 16  2  1 12  0 19.0000000  0  9G26G20G02G29G13G05G21G25G18
 120154599.644 6  93626929.27044  22864659.580    22864650.7454
        41.100          28.8004
 108390965.295 7  84460448.57946  20626112.858    20626099.5684
        47.900          38.7004
 126679893.230 6  98711554.67043  24106381.208    24106366.2774
        36.500          20.6004
 105264681.478 8  82024395.86147  20031199.994    20031187.6424
        50.800          44.9004
 131091512.144 6                  24945886.357
        36.200
 113468947.399 7  88417325.36946  21592420.668    21592407.8484
        47.900          37.3004
 119528607.906 7  93139112.55644  22745534.606    22745521.7854
        43.100          29.1004
 120801334.884 6  94130878.27644  22987729.016    22987718.8334
        41.500          27.6004
 128479274.160 5                  24448792.841
        33.100
 16  2  1 12  0 20.0000000  0  9G26G20G02G29G13G05G21G25G18
 120152659.506 6  93625417.47344  22864290.306    22864281.4124
        41.200          28.5004
 108389269.054 8  84459126.82946  20625790.074    20625776.8434
        48.100          38.7004
 126682764.600 6  98713792.08843  24106927.410    24106912.7734
        37.000          20.9004
 105264760.133 8  82024457.15147  20031214.894    20031202.6014
        50.500          44.9004
 131088564.078 5                  24945325.648
        35.400
 113470712.741 8  88418700.96146  21592756.758    21592743.5274
        48.100          37.3004
 119526506.424 7  93137475.03744  22745135.073    22745122.1944
        43.100          29.9004
 120804843.355 6  94133612.15044  22988396.712    22988386.8224
        41.700          27.9004
 128475816.709 5                  24448134.508
        33.600
 16  2  1 12  0 21.0000000  0  9G26G20G02G29G13G05G21G25G18
 120150719.617 6  93623905.86844  22863920.621    22863912.3724
        41.600          28.2004
 108387573.098 8  84457805.30246  20625467.086    20625454.3834
        48.200          39.1004
 126685635.735 6  98716029.32243  24107473.573    24107458.5834
        36.800          20.9004
 105264838.954 8  82024518.57047  20031229.503    20031217.5034
        50.200          44.9004
 131085615.956 5                  24944765.616
        35.500
 113472478.375 7  88420076.78346  21593092.550    21593079.9644
        47.800          37.5004
 119524404.879 7  93135837.47145  22744734.981    22744722.6294
        43.000          30.1004
 120808351.794 6  94136346.00044  22989064.937    22989054.2854
        41.700          28.3004
 128472358.979 5                  24447477.692
        33.100
 16  2  1 12  0 22.0000000  0  9G26G20G02G29G13G05G21G25G18
 120148779.930 6  93622394.42744  22863552.221    22863543.0934
        41.600          28.1004
 108385877.415 8  84456483.98946  20625144.859    20625131.5104
        48.300          38.7004
 126688506.605 6  98718266.37343  24108019.745    24108005.5764
        37.000          20.6004
 105264917.923 8  82024580.10247  20031244.812    20031232.8704
        50.200          44.9004
 131082667.588 5                  24944204.253
        35.200
 113474244.251 7  88421452.78946  21593428.405    21593415.5854
        47.800          37.6004
 119522303.193 7  93134199.79645  22744335.494    22744322.7914
        42.700          30.2004
 120811860.131 6  94139079.77344  22989732.316    22989721.9574
        41.500          28.3004
 128468901.034 5                  24446820.052
        33.400
 16  2  1 12  0 23.0000000  0  9G26G20G02G29G13G05G21G25G18
 120146841.132 6  93620883.67844  22863182.966    22863174.5414
        41.600          27.9004
 108384182.609 8  84455163.36546  20624821.878    20624808.6474
        48.100          38.5004
 126691377.843 6  98720503.69743  24108566.560    24108551.5714
        36.600          20.6004
 105264997.683 8  82024642.25647  20031260.043    20031247.8674
        50.500          44.9004
 131079719.788 5                  24943643.321
        34.900
 113476011.007 7  88422829.48346  21593764.577    21593752.1084
        47.700          37.6004
 119520202.043 7  93132562.53944  22743934.714    22743922.5384
        42.800          29.7004
 120815369.044 7  94141813.99144  22990400.217    22990389.6234
        42.000          28.0004
 128465443.532 5                  24446161.418
        34.200
 16  2  1 12  0 24.0000000  0  9G26G20G02G29G13G05G21G25G18
 120144902.736 6  93619373.24244  22862813.972    22862805.1374
        41.600          28.3004
 108382488.291 8  84453843.10846  20624499.084    20624486.5564
        48.400          38.6004
 126694249.034 6  98722740.98343  24109112.405    24109098.2374
        36.600          20.9004
 105265077.803 8  82024704.68347  20031275.083    20031262.9084
        50.500          45.1004
 131076771.992 5                  24943082.022
        34.300
 113477778.217 7  88424206.53246  21594100.655    21594088.0694
        47.800          37.8004
 119518100.980 7  93130925.34944  22743535.034    22743522.3304
        43.100          28.7004
 120818878.113 7  94144548.33044  22991067.510    22991057.5614
        42.300          27.9004
 128461985.921 5                  24445503.736
        34.300
 16  2  1 12  0 25.0000000  0  9G26G20G02G29G13G05G21G25G18
 120142965.111 6  93617863.41544  22862445.687    22862436.6174
        41.700          28.0004
 108380794.739 8  84452523.46546  20624177.308    20624164.2534
        48.200          38.3004
 126697120.472 6  98724978.46543  24109659.245    24109644.7254
        36.600          21.1004
 105265158.563 8  82024767.61947  20031290.556    20031278.6154
        50.500          45.0004
 131073824.509 5                  24942519.438
        34.800
 113479546.189 7  88425584.16846  21594437.214    21594424.5104
        47.800          37.5004
 119516000.268 7  93129288.42944  22743135.421    22743123.0114
        43.000          29.6004
 120822387.627 7  94147283.02244  22991735.442    22991725.2594
        42.400          27.0004
 128458528.610 5                  24444845.554
        34.300
 16  2  1 12  0 26.0000000  0  9G26G20G02G29G13G05G21G25G18
 120141027.992 6  93616353.97444  22862077.482    22862068.2374
        41.800          28.5004
 108379101.718 8  84451204.22746  20623854.820    20623841.5894
        48.000          38.4004
 126699991.964 6  98727215.99643  24110205.027    24110191.0344
        37.100          20.9004
 105265239.776 8  82024830.90147  20031306.348    20031294.0554
        50.800          45.2004
 131070877.170 5                  24941960.266
        34.800
 113481314.687 7  88426962.22546  21594773.767    21594761.6504
        47.600          37.8004
 119513899.760 7  93127651.66844  22742735.707    22742723.0034
        42.800          29.7004
 120825897.309 7  94150017.83744  22992403.112    22992393.1044
        42.400          27.7004
 128455071.311 5                  24444188.442
        34.100
 16  2  1 12  0 27.0000000  0  9G26G20G02G29G13G05G21G25G18
 120139091.269 6  93614844.83544  22861708.403    22861699.4514
        41.800          28.8004
 108377409.131 8  84449885.32546  20623532.955    20623519.4324
        48.000          38.6004
 126702863.313 6  98729453.41843  24110751.341    24110737.8754
        37.300          20.6004
 105265321.299 8  82024894.42247  20031321.611    20031309.6114
        50.900          45.2004
 131067929.828 5                  24941398.415
        35.100
 113483083.589 7  88428340.59146  21595110.123    21595098.0064
        47.900          38.0004
 119511799.287 7  93126014.93544  22742336.352    22742323.1214
        43.000          29.0004
 120829407.110 7  94152752.74744  22993071.280    22993061.0384
        42.000          27.8004
 128451613.978 5                  24443530.913
        34.200
 16  2  1 12  0 28.0000000  0  9G26G20G02G29G13G05G21G25G18
 120137155.279 6  93613336.26344  22861340.398    22861331.2704
        41.300          27.7004
 108375717.308 7  84448567.02646  20623210.824    20623197.5344
        47.600          38.6004
 126705734.922 6  98731691.03843  24111298.501    24111283.8054
        37.000          20.6004
 105265403.469 8  82024958.44847  20031336.965    20031325.0824
        50.600          44.9004
 131064982.840 5                  24940838.415
        35.200
 113484853.255 7  88429719.54846  21595447.227    21595434.5244
        47.600          37.4004
 119509699.176 7  93124378.49244  22741936.552    22741923.5564
        43.200          29.5004
 120832917.319 7  94155487.97144  22993738.725    22993728.9524
        42.400          28.2004
 128448156.890 5                  24442872.932
        34.800
 16  2  1 12  0 29.0000000  0  9G26G20G02G29G13G05G21G25G18
 120135219.623 6  93611827.95044  22860971.831    22860962.4694
        41.200          27.2004
 108374025.843 8  84447248.99846  20622889.269    20622876.1554
        48.100          38.5004
 126708606.325 6  98733928.48243  24111845.159    24111830.8154
        37.700          21.3004
 105265485.882 8  82025022.66747  20031353.181    20031340.8884
        50.500          45.1004
 131062035.776 5                  24940277.972
        35.100
 113486623.243 7  88431098.75746  21595784.024    21595771.2034
        47.900          38.0004
 119507599.055 7  93122742.03544  22741537.476    22741524.3634
        43.400          29.3004
 120836427.576 6  94158223.23944  22994407.299    22994396.9994
        41.800          28.7004
 128444699.647 5                  24442215.020
        35.300
 16  2  1 12  0 30.0000000  0  9G26G20G02G29G13G05G21G25G18
 120133284.643 6  93610320.17144  22860603.588    22860594.4014
        40.900          28.2004
 108372335.128 7  84445931.56246  20622567.452    20622554.5144
        47.600          38.5004
 126711477.975 6  98736166.12443  24112390.421    24112376.8394
        37.900          20.9004
 105265568.913 8  82025087.36947  20031368.513    20031356.3374
        50.700          44.9004
 131059089.059 5                  24939717.961
        34.700
 113488393.954 8  88432478.53346  21596121.244    21596108.6574
        48.000          38.0004
 119505499.286 7  93121105.85344  22741137.162    22741124.5174
        43.500          28.9004
 120839938.198 7  94160958.79044  22995075.449    22995064.9734
        42.200          28.0004
 128441242.631 5                  24441556.944
        34.900
 16  2  1 12  0 31.0000000  0  9G26G20G02G29G13G05G21G25G18
 120131350.224 6  93608812.84044  22860235.570    22860226.3244
        41.100          28.5004
 108370644.982 7  84444614.57046  20622245.963    20622232.6154
        47.500          38.4004
 126714349.706 6  98738403.83243  24112937.894    24112923.5504
        37.200          20.6004
 105265652.420 8  82025152.43747  20031384.654    20031372.5374
        50.600          45.1004
 131056142.420 5                  24939157.603
        35.000
 113490165.246 7  88433858.76246  21596458.489    21596445.4924
        47.800          37.9004
 119503399.723 7  93119469.82744  22740738.346    22740725.2914
        43.600          29.3004
 120843449.076 7  94163694.53144  22995743.410    22995733.5794
        42.300          27.9004
 128437785.676 5                  24440899.026
        35.000
 16  2  1 12  0 32.0000000  0  9G26G20G02G29G13G05G21G25G18
 120129416.322 6  93607305.89744  22859867.623    22859858.3784
        41.500          28.7004
 108368955.352 7  84443297.97146  20621924.138    20621910.9084
        47.800          38.4004
 126717221.383 6  98740641.50143  24113484.190    24113469.9634
        37.000          20.6004
 105265736.341 8  82025217.83047  20031400.390    20031388.0974
        50.100          45.1004
 131053195.961 5                  24938596.821
        34.900
 113491937.074 7  88435239.40746  21596795.415    21596782.7124
        47.900          37.7004
 119501300.297 7  93117833.91144  22740338.623    22740325.4514
        43.300          29.0004
 120846960.149 7  94166430.43844  22996411.636    22996401.4534
        42.400          28.6004
 128434328.784 5                  24440241.893
        35.000
 16  2  1 12  0 33.0000000  0  9G26G20G02G29G13G05G21G25G18
 120127482.949 6  93605799.37444  22859499.511    22859490.6174
        41.100          28.3004
 108367266.327 8  84441981.85446  20621602.635    20621589.5804
        48.100          38.5004
 126720093.144 6  98742879.21743  24114031.455    24114016.2324
        37.400          20.9004
 105265820.722 8  82025283.58147  20031416.606    20031404.4314
        50.200          45.2004
 131050249.606 5                  24938035.947
        34.800
 113493709.432 8  88436620.46446  21597132.569    21597119.6904
        48.100          37.8004
 119499201.082 7  93116198.16244  22739939.826    22739926.3024
        43.800          29.8004
 120850471.484 7  94169166.53944  22997079.818    22997069.4014
        42.100          28.4004
 128430871.970 5                  24439584.040
        34.900
 16  2  1 12  0 34.0000000  0  9G26G20G02G29G13G05G21G25G18
 120125550.211 6  93604293.34344  22859132.035    22859122.7314
        41.400          27.3004
 108365577.952 8  84440666.23646  20621281.561    20621268.7404
        48.200          38.7004
 126722965.087 6  98745117.09943  24114578.160    24114562.9954
        38.100          20.6004
 105265905.663 8  82025349.76947  20031432.678    20031420.5024
        50.700          45.4004
 131047303.495 5                  24937474.846
        34.800
 113495482.451 8  88438002.03646  21597470.320    21597457.6174
        48.100          38.2004
 119497102.128 7  93114562.61245  22739539.748    22739526.8694
        43.900          30.0004
 120853983.124 7  94171902.88944  22997747.817    22997738.0444
        42.200          27.7004
 128427415.266 5                  24438926.168
        35.100
 16  2  1 12  0 35.0000000  0  9G26G20G02G29G13G05G21G25G18
 120123617.940 6  93602787.67844  22858763.443    22858755.3704
        41.400          28.0004
 108363890.114 8  84439351.03646  20620960.739    20620946.7474
        48.000          38.8004
 126725836.942 6  98747354.93443  24115125.115    24115109.5394
        38.600          20.4004
 105265991.001 8  82025416.26947  20031449.088    20031437.0294
        50.500          45.4004
 131044357.472 5                  24936914.105
        35.800
 113497255.970 7  88439384.00146  21597807.708    21597794.8294
        47.600          38.0004
 119495003.307 7  93112927.17444  22739140.552    22739127.3804
        43.900          29.9004
 120857494.947 7  94174639.37544  22998416.059    22998406.1104
        42.000          27.4004
 128423958.616 5                  24438267.607
        34.700
 16  2  1 12  0 36.0000000  0  9G26G20G02G29G13G05G21G25G18
 120121686.360 6  93601282.55344  22858396.389    22858387.7884
        41.600          28.3004
 108362202.947 7  84438036.36046  20620639.572    20620625.7554
        47.600          38.9004
 126728709.007 6  98749592.91843  24115671.487    24115655.9124
        38.400          20.4004
 105266076.912 8  82025483.21147  20031465.509    20031453.3344
        50.600          45.4004
 131041411.742 5                  24936353.354
        35.800
 113499030.143 7  88440766.47246  21598144.980    21598132.3944
        47.600          38.2004
 119492904.805 7  93111291.97144  22738740.823    22738728.1204
        43.600          29.7004
 120861007.117 7  94177376.13244  22999084.283    22999074.3934
        42.200          28.4004
 128420502.097 5                  24437609.637
        34.600
 16  2  1 12  0 37.0000000  0  9G26G20G02G29G13G05G21G25G18
 120119755.271 6  93599777.80544  22858028.851    22858020.1924
        41.600          28.6004
 108360516.323 7  84436722.10446  20620318.386    20620305.0384
        47.800          38.9004
 126731581.106 6  98751830.91543  24116217.548    24116202.1484
        38.300          20.4004
 105266163.261 8  82025550.49547  20031481.903    20031469.8444
        50.700          45.3004
 131038466.065 5                  24935792.812
        35.500
 113500804.874 7  88442149.38246  21598482.821    21598470.0014
        47.900          38.0004
 119490806.447 7  93109656.88344  22738341.553    22738328.9674
        43.200          28.9004
 120864519.489 6  94180113.03944  22999752.363    22999742.8834
        41.900          28.7004
 128417045.683 5                  24436952.296
        34.100
 16  2  1 12  0 38.0000000  0  9G26G20G02G29G13G05G21G25G18
 120117824.776 7  93598273.52744  22857661.687    22857652.6764
        42.100          28.1004
 108358830.350 8  84435408.36446  20619997.881    20619984.2984
        48.100          38.9004
 126734453.265 6  98754068.95343  24116764.487    24116748.8534
        37.400          20.4004
 105266250.140 8  82025618.19347  20031498.453    20031486.3364
        50.900          45.5004
 131035520.700 5                  24935233.002
        35.900
 113502580.219 7  88443532.76146  21598820.857    21598808.0364
        47.900          38.0004
 119488708.370 7  93108022.01544  22737942.606    22737929.6104
        43.200          29.1004
 120868032.220 7  94182850.24344  23000421.050    23000411.2774
        42.000          28.9004
 128413589.363 5                  24436294.812
        34.100
 16  2  1 12  0 39.0000000  0  9G26G20G02G29G13G05G21G25G18
 120115894.860 7  93596769.69644  22857294.065    22857285.5234
        42.000          28.3004
 108357144.958 7  84434095.06846  20619676.718    20619663.7804
        47.800          39.3004
 126737325.546 6  98756307.08743  24117309.702    24117295.6514
        37.800          20.1004
 105266337.490 8  82025686.25447  20031515.021    20031502.8454
        51.200          45.6004
 131032575.443 5                  24934672.127
        35.700
 113504356.111 7  88444916.57746  21599158.854    21599145.6824
        47.500          37.9004
 119486610.502 7  93106387.31844  22737543.408    22737530.1184
        43.600          29.4004
 120871545.120 7  94185587.57244  23001089.428    23001079.7724
        42.100          27.9004
 128410133.102 5                  24435636.743
        34.100
 16  2  1 12  0 40.0000000  0  9G26G20G02G29G13G05G21G25G18
 120113965.447 6  93595266.26844  22856927.377    22856918.5424
        41.900          28.6004
 108355460.095 8  84432782.19446  20619356.175    20619342.7094
        48.000          38.9004
 126740197.813 6  98758545.21143  24117856.713    24117841.8414
        38.100          19.9004
 105266425.247 8  82025754.64747  20031531.849    20031519.4384
        50.900          45.8004
 131029630.305 5                  24934112.090
        35.500
 113506132.553 8  88446300.81846  21599496.689    21599483.5764
        48.100          37.9004
 119484512.784 7  93104752.73744  22737144.143    22737130.7954
        43.500          28.8004
 120875058.269 7  94188325.09144  23001758.000    23001748.3444
        42.000          28.9004
 128406676.977 5                  24434978.764
        34.500
 16  2  1 12  0 41.0000000  0  9G26G20G02G29G13G05G21G25G18
 120112036.470 6  93593763.16244  22856560.292    22856551.2814
        41.500          27.4004
 108353775.719 7  84431469.68946  20619036.304    20619022.5464
        47.800          39.2004
 126743069.975 6  98760783.24343  24118403.767    24118388.7774
        37.000          20.1004
 105266513.384 8  82025823.32247  20031548.508    20031536.4504
        50.800          45.5004
 131026685.174 5                  24933550.779
        35.400
 113507909.432 8  88447685.40546  21599834.691    21599821.9294
        48.100          38.0004
 119482415.124 7  93103118.20144  22736745.156    22736731.8674
        43.900          29.6004
 120878571.546 6  94191062.71044  23002426.455    23002416.7414
        41.400          27.6004
 128403220.715 5                  24434321.560
        34.300
 16  2  1 12  0 42.0000000  0  9G26G20G02G29G13G05G21G25G18
 120110108.415 6  93592260.77944  22856192.710    22856184.2854
        41.400          27.6004
 108352092.289 8  84430157.92746  20618715.457    20618702.4604
        48.200          39.1004
 126745942.624 6  98763021.68043  24118950.724    24118935.2074
        37.100          20.6004
 105266602.356 8  82025892.64747  20031565.507    20031553.2734
        50.900          45.5004
 131023740.583 6                  24932990.520
        36.100
 113509687.260 8  88449070.71946  21600173.262    21600160.3244
        48.100          38.0004
 119480318.042 7  93101484.10444  22736346.285    22736332.8204
        43.400          29.5004
 120882085.449 6  94193800.81044  23003095.229    23003086.0424
        41.400          28.2004
 128399764.925 5                  24433662.766
        33.900
 16  2  1 12  0 43.0000000  0  9G26G20G02G29G13G05G21G25G18
 120108180.864 6  93590758.79344  22855826.302    22855817.8784
        41.400          27.7004
 108350409.397 8  84428846.57846  20618395.330    20618382.0994
        48.400          39.2004
 126748815.308 6  98765260.14843  24119496.755    24119481.4724
        37.200          20.6004
 105266691.745 8  82025962.31047  20031582.472    20031569.9444
        51.300          45.5004
 131020796.146 5                  24932430.710
        35.900
 113511465.614 8  88450456.45446  21600511.725    21600498.7284
        48.200          38.0004
 119478221.139 7  93099850.15044  22735946.911    22735933.5634
        43.600          28.8004
 120885599.514 6  94196539.03444  23003763.599    23003754.2364
        41.300          27.2004
 128396309.209 5                  24433006.064
        33.100
 16  2  1 12  0 44.0000000  0  9G26G20G02G29G13G05G21G25G18
 120106253.408 6  93589256.88244  22855459.531    22855450.8724
        41.900          27.9004
 108348726.612 8  84427535.32346  20618075.076    20618061.6694
        48.100          39.3004
 126751687.545 6  98767498.27543  24120043.634    24120028.0594
        37.100          20.6004
 105266781.140 8  82026031.96247  20031599.743    20031587.3924
        50.900          45.4004
 131017851.395 6                  24931870.466
        36.300
 113513244.041 7  88451842.24046  21600849.956    21600837.1364
        47.800          38.2004
 119476123.944 7  93098215.97444  22735548.370    22735534.4354
        43.100          29.0004
 120889113.386 6  94199277.11044  23004432.140    23004422.9534
        41.100          27.5004
 128392853.052 5                  24432348.217
        32.800
 16  2  1 12  0 45.0000000  0  9G26G20G02G29G13G05G21G25G18
 120104326.904 7  93587755.71444  22855093.223    22855084.3294
        42.200          27.4004
 108347044.866 8  84426224.86546  20617754.856    20617741.3914
        48.000          39.1004
 126754560.241 6  98769736.73543  24120590.546    24120574.5604
        37.600          20.4004
 105266871.452 8  82026102.33347  20031616.628    20031604.5114
        50.700          45.3004
 131014907.206 6                  24931309.875
        36.200
 113515023.509 7  88453228.83946  21601188.486    21601175.5484
        47.500          38.1004
 119474027.398 7  93096582.30944  22735149.414    22735135.6564
        43.000          29.8004
 120892627.952 6  94202015.73344  23005100.797    23005091.7864
        41.500          28.1004
 128389397.431 5                  24431690.005
        33.500
 16  2  1 12  0 46.0000000  0  9G26G20G02G29G13G05G21G25G18
 120102400.989 6  93586254.99744  22854726.181    22854717.4634
        41.700          27.1004
 108345363.677 8  84424914.85546  20617435.080    20617421.6154
        48.000          39.3004
 126757433.062 6  98771975.28843  24121137.026    24121121.3344
        38.000          20.6004
 105266962.232 8  82026173.07047  20031633.824    20031621.5904
        50.800          45.1004
 131011963.211 5                  24930750.176
        35.700
 113516803.524 8  88454615.86646  21601527.394    21601514.5154
        48.000          38.1004
 119471931.054 7  93094948.79644  22734749.762    22734736.5904
        43.200          29.6004
 120896142.721 6  94204754.50344  23005770.098    23005760.6184
        41.800          27.5004
 128385941.874 5                  24431032.447
        34.100
 16  2  1 12  0 47.0000000  0  9G26G20G02G29G13G05G21G25G18
 120100475.581 6  93584754.68344  22854360.872    22854351.5684
        41.700          28.7004
 108343683.029 8  84423605.25946  20617115.001    20617101.7114
        48.200          38.9004
 126760305.854 6  98774213.82543  24121683.567    24121668.6374
        37.800          20.1004
 105267053.425 8  82026244.13247  20031651.014    20031638.8974
        50.500          45.1004
 131009019.285 6                  24930189.836
        36.200
 113518584.033 7  88456003.26846  21601866.621    21601853.4494
        47.800          38.2004
 119469834.845 7  93093315.38444  22734351.255    22734338.2004
        42.900          29.4004
 120899657.707 7  94207493.45744  23006439.541    23006429.5344
        42.300          27.4004
 128382486.340 5                  24430374.326
        33.200
 16  2  1 12  0 48.0000000  0  9G26G20G02G29G13G05G21G25G18
 120098550.603 7  93583254.70044  22853994.334    22853985.0894
        42.200          28.5004
 108342002.879 8  84422296.05746  20616795.175    20616782.4134
        48.500          39.1004
 126763178.619 6  98776452.33343  24122230.511    24122214.9944
        37.000          19.9004
 105267144.985 8  82026315.47747  20031668.677    20031656.3844
        50.200          45.2004
 131006075.450 6                  24929629.994
        36.000
 113520365.036 7  88457391.06846  21602205.169    21602192.1144
        47.800          38.1004
 119467738.746 7  93091682.06145  22733951.697    22733938.9944
        42.400          30.1004
 120903172.838 7  94210232.51944  23007108.172    23007098.4004
        42.700          27.9004
 128379030.853 5                  24429717.032
        32.500
 16  2  1 12  0 49.0000000  0  9G26G20G02G29G13G05G21G25G18
 120096626.269 7  93581755.21844  22853627.603    22853618.5924
        42.000          28.9004
 108340323.373 8  84420987.35246  20616475.911    20616462.5634
        48.000          38.8004
 126766051.498 6  98778690.94943  24122777.025    24122761.7434
        36.900          19.9004
 105267237.096 8  82026387.25047  20031685.977    20031673.9184
        50.200          45.4004
 131003131.837 5                  24929067.983
        35.300
 113522146.682 7  88458779.36146  21602544.652    21602531.4804
        47.800          38.3004
 119465642.940 7  93090048.96744  22733553.058    22733540.1214
        42.700          29.8004
 120906688.277 7  94212971.83344  23007777.439    23007767.3734
        42.700          28.8004
 128375575.425 5                  24429059.343
        33.100
 16  2  1 12  0 50.0000000  0  9G26G20G02G29G13G05G21G25G18
 120094702.370 6  93580256.07744  22853261.852    22853252.9584
        41.600          28.5004
 108338644.372 8  84419679.03546  20616156.455    20616142.9314
        48.200          38.9004
 126768924.354 6  98780929.54643  24123323.064    24123308.4854
        36.900          19.3004
 105267329.588 8  82026459.32447  20031703.625    20031691.7424
        50.100          45.6004
 131000188.241 5                  24928507.765
        35.400
 113523928.791 7  88460168.01846  21602883.186    21602870.3654
        47.900          38.1004
 119463547.217 7  93088415.94344  22733154.462    22733141.5244
        42.800          29.3004
 120910203.890 7  94215711.27644  23008446.250    23008436.1844
        42.400          28.2004
 128372120.045 5                  24428402.841
        33.400
 16  2  1 12  0 51.0000000  0  9G26G20G02G29G13G05G21G25G18
 120092779.448 6  93578757.69144  22852896.010    22852886.7654
        41.500          28.6004
 108336966.368 8  84418371.49546  20615837.021    20615823.3804
        48.100          39.0004
 126771797.730 6  98783168.54943  24123869.755    24123855.1174
        36.800          19.0004
 105267422.970 8  82026532.08247  20031721.211    20031709.3874
        50.100          45.5004
 130997245.290 5                  24927948.058
        35.400
 113525711.885 8  88461557.44246  21603223.017    21603210.0794
        48.000          38.3004
 119461452.143 7  93086783.41644  22732755.775    22732742.1924
        42.700          29.3004
 120913720.148 7  94218451.22144  23009115.659    23009105.3594
        42.600          27.9004
 128368665.158 5                  24427746.154
        33.900
 16  2  1 12  0 52.0000000  0  9G26G20G02G29G13G05G21G25G18
 120090856.554 6  93577259.33544  22852529.524    22852520.9824
        41.600          28.8004
 108335288.383 8  84417063.98346  20615517.879    20615504.4134
        48.200          38.6004
 126774670.552 6  98785407.11943  24124416.916    24124401.7514
        37.300          19.0004
 105267516.259 8  82026604.77847  20031739.143    20031727.0264
        50.200          45.5004
 130994301.945 5                  24927388.704
        35.600
 113527495.006 7  88462946.88946  21603561.996    21603549.3524
        47.900          38.3004
 119459356.656 7  93085150.56844  22732357.166    22732343.8764
        43.000          29.4004
 120917236.094 7  94221190.91444  23009785.141    23009774.4304
        42.800          27.6004
 128365209.786 5                  24427088.331
        34.300
 16  2  1 12  0 53.0000000  0  9G26G20G02G29G13G05G21G25G18
 120088934.407 6  93575761.55744  22852163.585    22852154.9844
        41.400          28.7004
 108333611.263 8  84415757.13146  20615198.645    20615185.5904
        48.300          38.6004
 126777543.735 6  98787645.95843  24124963.730    24124948.5654
        36.700          19.0004
 105267610.284 8  82026678.04447  20031756.895    20031744.7784
        50.700          45.4004
 130991358.972 5                  24926829.128
        35.400
 113529278.921 7  88464336.95646  21603901.141    21603888.5554
        47.900          38.3004
 119457261.642 7  93083518.09544  22731958.563    22731945.3914
        42.600          29.1004
 120920752.544 7  94223931.01444  23010454.117    23010444.1684
        42.700          27.9004
 128361754.760 5                  24426430.863
        33.900
 16  2  1 12  0 54.0000000  0  9G26G20G02G29G13G05G21G25G18
 120087013.052 6  93574264.39744  22851797.584    22851789.4524
        41.500          28.7004
 108331934.852 8  84414450.83746  20614879.614    20614866.0904
        48.300          38.2004
 126780417.059 6  98789884.90343  24125509.622    24125495.5704
        37.000          18.3004
 105267704.931 8  82026751.79447  20031775.443    20031762.6224
        50.500          45.4004
 130988416.337 5                  24926269.694
        35.400
 113531063.573 7  88465727.59046  21604240.955    21604227.9014
        47.600          38.3004
 119455166.977 7  93081885.89244  22731560.348    22731546.7654
        43.000          29.3004
 120924269.372 7  94226671.39544  23011123.552    23011113.0764
        42.600          28.3004
 128358299.989 5                  24425773.790
        35.000
 16  2  1 12  0 55.0000000  0  9G26G20G02G29G13G05G21G25G18
 120085091.894 6  93572767.39544  22851432.813    22851423.9784
        41.300          28.0004
 108330258.752 7  84413144.78846  20614560.576    20614547.2284
        47.800          38.3004
 126783290.215 6  98792123.73243  24126056.673    24126041.8594
        36.600          18.6004
 105267799.757 8  82026825.68747  20031793.696    20031780.8754
        50.300          45.3004
 130985473.533 5                  24925708.310
        35.100
 113532848.505 7  88467118.45346  21604580.578    21604567.5824
        47.900          38.2004
 119453072.230 7  93080253.62144  22731161.284    22731148.1704
        43.000          29.5004
 120927786.206 7  94229411.78244  23011792.507    23011782.0314
        42.700          27.6004
 128354844.982 5                  24425116.772
        35.000
 16  2  1 12  0 56.0000000  0  9G26G20G02G29G13G05G21G25G18
 120083171.653 6  93571271.10744  22851066.605    22851058.4154
        41.100          28.5004
 108328583.561 7  84411839.44646  20614242.182    20614228.5414
        47.900          38.5004
 126786163.752 6  98794362.85143  24126604.247    24126588.6714
        36.900          19.0004
 105267895.367 8  82026900.18647  20031811.777    20031799.4844
        50.300          45.3004
 130982531.266 5                  24925149.297
        35.800
 113534634.330 7  88468509.99646  21604920.717    21604907.7794
        47.600          37.8004
 119450978.020 7  93078621.76444  22730762.830    22730749.4824
        43.500          29.3004
 120931303.570 7  94232152.58444  23012461.635    23012451.3354
        42.800          27.1004
 128351390.369 5                  24424460.008
        35.400
 16  2  1 12  0 57.0000000  0  9G26G20G02G29G13G05G21G25G18
 120081251.824 6  93569775.14144  22850701.417    22850692.9934
        41.000          28.2004
 108326908.857 7  84410534.48246  20613923.442    20613909.7424
        47.900          38.8004
 126789037.206 6  98796601.92343  24127151.344    24127135.7104
        37.400          18.6004
 105267991.362 8  82026974.99347  20031830.217    20031817.6904
        50.200          45.1004
 130979589.045 5                  24924588.553
        35.400
 113536420.622 7  88469901.91346  21605260.538    21605247.8354
        47.700          38.0004
 119448883.926 7  93076990.00044  22730364.287    22730350.9984
        43.700          29.7004
 120934821.108 7  94234893.51844  23013131.689    23013121.0954
        42.800          27.5004
 128347935.782 5                  24423801.999
        35.700
 16  2  1 12  0 58.0000000  0  9G26G20G02G29G13G05G21G25G18
 120079332.338 6  93568279.43344  22850336.573    22850328.0314
        41.400          28.7004
 108325234.480 8  84409229.77046  20613604.111    20613591.2314
        48.000          38.8004
 126791910.530 6  98798840.85143  24127697.754    24127681.8274
        37.500          18.3004
 105268087.583 8  82027049.96947  20031848.428    20031835.7834
        50.300          45.1004
 130976646.757 5                  24924029.011
        35.100
 113538207.238 7  88471294.07846  21605600.483    21605587.6624
        47.800          38.0004
 119446789.745 7  93075358.17544  22729965.604    22729952.3144
        43.800          28.8004
 120938338.634 7  94237634.45644  23013800.040    23013790.6784
        42.400          27.3004
 128344481.026 5                  24423145.321
        35.300
 16  2  1 12  0 59.0000000  0  9G26G20G02G29G13G05G21G25G18
 120077413.549 7  93566784.26644  22849971.632    22849962.8554
        42.100          28.9004
 108323560.843 8  84407925.63446  20613286.277    20613272.3434
        48.100          38.8004
 126794784.008 6  98801079.93043  24128244.044    24128229.1724
        37.100          18.6004
 105268184.427 8  82027125.42347  20031866.538    20031854.3034
        50.200          45.1004
 130973704.724 5 102057389.78253  24923469.086    24923456.9694
        34.800          20.4004
 113539994.547 7  88472686.78746  21605940.849    21605927.4424
        47.900          38.0004
 119444695.949 7  93073726.64544  22729567.344    22729553.8784
        43.900          28.8004
 120941856.533 7  94240375.67144  23014470.322    23014459.6124
        42.600          28.3004
 128341026.483 5                  24422487.373
        35.800
 16  2  1 12  1  0.0000000  0  9G26G20G02G29G13G05G21G25G18
 120075495.421 7  93565289.62044  22849606.697    22849597.9204
        42.000          29.4004
 108321887.899 8  84406622.04246  20612967.908    20612954.3254
        48.400          38.6004
 126797657.655 6  98803319.12743  24128791.263    24128775.8644
        36.700          19.0004
 105268281.837 8  82027201.33247  20031884.990    20031872.6384
        50.300          45.1004
 130970762.985 5 102055097.50143  24922909.073    24922896.6044
        34.100          19.9004
 113541782.548 8  88474080.03746  21606281.135    21606267.7284
        48.100          37.8004
 119442602.450 7  93072095.34644  22729168.737    22729155.5064
        43.600          29.9004
 120945374.811 7  94243117.18744  23015139.593    23015129.1764
        42.300          28.2004
 128337572.175 5                  24421831.330
        35.700
 16  2  1 12  1  1.0000000  0  9G26G20G02G29G13G05G21G25G18
 120073577.790 7  93563795.36344  22849241.715    22849232.7634
        42.000          28.8004
 108320215.509 8  84405318.87946  20612649.427    20612635.8444
        48.300          38.9004
 126800531.369 6  98805558.38643  24129337.584    24129322.0674
        36.300          19.3004
 105268379.706 8  82027277.58847  20031903.917    20031891.4484
        49.100          45.0004
 130967821.446 5 102052805.38743  24922349.566    24922337.1564
        34.400          19.3004
 113543571.068 8  88475473.69346  21606621.003    21606608.1244
        48.300          37.7004
 119440509.112 7  93070464.16944  22728770.897    22728757.3734
        43.300          28.9004
 120948893.297 7  94245858.85944  23015809.021    23015798.7214
        42.200          27.2004
 128334117.832 5                  24421173.553
        35.200
 16  2  1 12  1  2.0000000  0  9G26G20G02G29G13G05G21G25G18
 120071660.729 7  93562301.55444  22848877.605    22848867.9494
        42.200          29.7004
 108318543.681 7  84404016.16346  20612331.345    20612318.0554
        47.900          38.7004
 126803405.090 6  98807797.63843  24129885.573    24129869.5284
        36.700          19.3004
 105268478.023 8  82027354.20547  20031922.663    20031910.6044
        48.800          45.1004
 130964879.964 5 102050513.30643  24921789.327    24921777.2104
        34.200          18.6004
 113545360.163 8  88476867.79546  21606961.730    21606948.6164
        48.100          37.8004
 119438415.969 7  93068833.14844  22728372.254    22728359.0244
        43.300          29.9004
 120952412.005 6  94248600.70944  23016478.681    23016467.9114
        41.900          27.7004
 128330663.613 6                  24420515.669
        36.100
 16  2  1 12  1  3.0000000  0  9G26G20G02G29G13G05G21G25G18
 120069744.359 7  93560808.27744  22848513.140    22848503.2504
        42.300          29.5004
 108316872.601 7  84402714.01846  20612013.471    20611999.5954
        47.900          38.2004
 126806279.022 6  98810037.06843  24130431.933    24130416.3584
        36.700          19.3004
 105268576.954 8  82027431.29247  20031941.468    20031928.9404
        49.200          45.1004
 130961938.785 5 102048221.45243  24921229.773    24921217.3634
        34.000          18.3004
 113547149.934 8  88478262.41846  21607302.347    21607289.2924
        48.000          37.8004
 119436323.186 7  93067202.40744  22727974.773    22727960.8394
        43.300          29.0004
 120955931.108 7  94251342.87144  23017148.692    23017137.9814
        42.600          28.2004
 128327209.606 6                  24419859.400
        36.000
 16  2  1 12  1  4.0000000  0  9G26G20G02G29G13G05G21G25G18
 120067828.279 7  93559315.22344  22848148.151    22848138.7894
        42.500          29.2004
