     2.11           OBSERVATION DATA    M (MIXED)           RINEX VERSION / TYPE
teqc  2015Nov6      NGS Web User        20160201 21:29:34UTCPGM / RUN BY / DATE
Solaris x86 5.10|AMD64|cc SC5.8 -xarch=amd64|=+|=+          COMMENT
teqc  2015Nov6      NOAA/NOS/NGS/CORS   20160102 03:06:01UTCCOMMENT
+47.682295489 (latitude)                                    COMMENT
-122.31514771 (longitude)                                   COMMENT
+74.4430      (elevation)                                   COMMENT
+.000000      (antenna height)                              COMMENT
BIT 2 OF LLI FLAGS DATA COLLECTED UNDER A/S CONDITION       COMMENT
 SNR is mapped to RINEX snr flag value [0-9]                COMMENT
  L1 & L2: min(max(int(snr_dBHz/6), 0), 9)                  COMMENT
teqc edited: all SBAS satellites excluded                   COMMENT
teqc edited: all Compass satellites excluded                COMMENT
teqc edited: all QZSS satellites excluded                   COMMENT
SSHO                                                        MARKER NAME
6                                                           MARKER NUMBER
Gavin Schrock       WSRN                                    OBSERVER / AGENCY
5137K78436          TRIMBLE NETR9       NAV 4.42 BOOT 4     REC # / TYPE / VERS
1441127238          TRM57971.00     NONE                    ANT # / TYPE
 -2299720.2890 -3635669.3300  4693221.8870                  APPROX POSITION XYZ
        0.0000        0.0000        0.0000                  ANTENNA: DELTA H/E/N
     1     1                                                WAVELENGTH FACT L1/2
    11    L1    L2    L5    C1    P1    C2    P2    C5    S1# / TYPES OF OBSERV
          S2    S5                                          # / TYPES OF OBSERV
     1.0000                                                 INTERVAL
teqc windowed: start @ 2016 Jan  1 00:00:00.000             COMMENT
teqc windowed:  end  @ 2016 Jan  1 01:00:00.000             COMMENT
teqc edited: all GLONASS satellites excluded                COMMENT
  2016     1     1     0     0    0.0000000     GPS         TIME OF FIRST OBS
    17                                                      LEAP SECONDS
                                                            END OF HEADER
 16  1  1  0  0  0.0000000  0  7G01G03G06G16G23G31G32
 130660665.437 6 101813534.52743                  24863931.906
                  24863951.176                          38.300          22.500

 107727918.106 8  83943906.94147                  20499937.406
                  20499946.434                          50.900          42.600

 124602281.374 6  97092754.30944                  23711034.914
                  23711045.949                          41.700          26.100

 119055943.980 7  92770932.05944                  22655577.461
                  22655585.301                          44.800          29.700

 110700738.750 8  86260416.13346                  21065639.023
                  21065643.871                          51.600          40.200

 121105130.488 7  94367738.78245                  23045528.977
                  23045536.363                          45.600          32.400

 117989691.301 7  91939991.81945                  22452674.602
                  22452683.383                          46.100          33.600

 16  1  1  0  0  1.0000000  0  7G01G03G06G16G23G31G32
 130664181.892 6 101816274.59943                  24864600.719
                  24864620.309                          38.300          22.300

 107729140.643 8  83944859.56047                  20500170.102
                  20500178.980                          51.000          42.900

 124601320.429 7  97092005.52844                  23710851.578
                  23710863.164                          42.100          26.900

 119052921.624 7  92768576.98944                  22655002.242
                  22655010.082                          44.800          29.800

 110699115.798 8  86259151.49546                  21065330.102
                  21065335.105                          51.200          40.400

 121108342.508 7  94370241.66445                  23046139.664
                  23046147.777                          44.500          32.200

 117992744.267 7  91942370.74845                  22453255.758
                  22453264.613                          46.000          34.100

 16  1  1  0  0  2.0000000  0  7G01G03G06G16G23G31G32
 130667698.227 6 101819014.59543                  24865270.195
                  24865289.375                          38.000          22.600

 107730363.756 8  83945812.64147                  20500402.844
                  20500411.652                          50.900          42.800

 124600360.064 6  97091257.19144                  23710668.297
                  23710680.668                          41.700          26.800

 119049899.589 7  92766222.15945                  22654427.453
                  22654435.414                          44.800          30.000

 110697493.088 8  86257887.04646                  21065021.586
                  21065026.320                          51.300          40.100

 121111554.671 7  94372744.65945                  23046750.734
                  23046758.715                          44.700          32.300

 117995797.491 7  91944749.88745                  22453836.594
                  22453845.293                          46.500          34.100

 16  1  1  0  0  3.0000000  0  7G01G03G06G16G23G31G32
 130671214.581 6 101821754.60143                  24865940.266
                  24865958.746                          38.500          22.300

 107731587.482 8  83946766.19147                  20500635.734
                  20500644.664                          51.200          42.300

 124599400.377 6  97090509.37144                  23710485.477
                  23710497.684                          41.300          25.800

 119046878.008 7  92763867.68745                  22653852.523
                  22653859.988                          45.000          30.200

 110695870.690 8  86256622.84146                  21064712.422
                  21064717.219                          51.100          40.100

 121114767.062 7  94375247.83845                  23047362.305
                  23047370.035                          44.700          32.300

 117998851.016 7  91947129.25445                  22454417.844
                  22454426.375                          46.300          34.200

 16  1  1  0  0  4.0000000  0  7G01G03G06G16G23G31G32
 130674730.901 6 101824494.58343                  24866608.750
                  24866628.094                          38.000          21.500

 107732811.758 8  83947720.17647                  20500868.828
                  20500878.160                          51.400          42.500

 124598441.246 6  97089761.99044                  23710302.742
                  23710315.203                          41.200          26.800

 119043856.790 7  92761513.49744                  22653277.438
                  22653285.527                          45.100          29.900

 110694248.524 8  86255358.82546                  21064403.414
                  21064408.879                          51.000          39.800

 121117979.633 7  94377751.15145                  23047973.375
                  23047980.988                          44.400          32.200

 118001904.801 7  91949508.83045                  22454998.758
                  22455007.703                          46.300          34.500

 16  1  1  0  0  5.0000000  0  7G01G03G06G16G23G31G32
 130678247.128 6 101827234.48843                  24867277.711
                  24867297.125                          38.200          21.700

 107734036.582 8  83948674.58547                  20501101.836
                  20501110.953                          51.600          42.400

 124597482.706 6  97089015.08144                  23710120.594
                  23710132.578                          41.400          26.800

 119040835.924 7  92759159.57644                  22652702.406
                  22652710.242                          44.800          29.300

 110692626.623 8  86254095.00246                  21064095.320
                  21064100.125                          50.800          39.600

 121121192.328 7  94380254.55545                  23048585.242
                  23048592.707                          44.100          31.800

 118004958.851 7  91951888.60445                  22455580.055
                  22455588.555                          46.100          33.800

 16  1  1  0  0  6.0000000  0  7G01G03G06G16G23G31G32
 130681763.391 6 101829974.43143                  24867947.641
                  24867966.078                          38.700          21.500

 107735262.043 8  83949629.48847                  20501334.586
                  20501344.008                          51.800          42.200

 124596524.843 6  97088268.69844                  23709937.711
                  23709950.770                          41.100          27.400

 119037815.488 7  92756805.99344                  22652127.969
                  22652135.465                          45.400          29.300

 110691005.024 8  86252831.42146                  21063786.711
                  21063791.695                          50.900          39.600

 121124405.271 7  94382758.15445                  23049196.242
                  23049203.758                          44.400          31.800

 118008013.201 7  91954268.61545                  22456161.406
                  22456170.391                          46.200          33.300

 16  1  1  0  0  7.0000000  0  7G01G03G06G16G23G31G32
 130685279.669 6 101832714.38743                  24868616.539
                  24868635.547                          37.700          21.500

 107736488.130 8  83950584.87747                  20501568.133
                  20501577.297                          51.900          42.500

 124595567.661 6  97087522.84244                  23709756.703
                  23709768.449                          41.400          27.900

 119034795.513 7  92754452.76544                  22651553.328
                  22651560.938                          45.400          29.800

 110689383.723 8  86251568.07246                  21063478.227
                  21063482.906                          50.700          40.100

 121127618.425 7  94385261.92645                  23049807.688
                  23049815.305                          44.500          31.800

 118011067.894 7  91956648.90045                  22456742.258
                  22456751.055                          46.300          33.600

 16  1  1  0  0  8.0000000  0  7G01G03G06G16G23G31G32
 130688795.912 6 101835454.31243                  24869285.641
                  24869304.164                          37.900          21.100

 107737714.840 8  83951540.75647                  20501801.344
                  20501810.512                          51.700          42.700

 124594611.119 6  97086777.49444                  23709574.859
                  23709586.102                          41.400          28.100

 119031775.949 7  92752099.86344                  22650978.797
                  22650986.223                          45.400          29.300

 110687762.761 8  86250304.98346                  21063169.625
                  21063174.305                          50.900          39.600

 121130831.816 7  94387765.87645                  23050419.422
                  23050426.445                          44.300          31.600

 118014122.931 7  91959029.44145                  22457324.094
                  22457332.957                          46.200          33.600

 16  1  1  0  0  9.0000000  0  7G01G03G06G16G23G31G32
 130692312.069 6 101838194.16543                  24869955.289
                  24869973.574                          38.100          20.600

 107738942.032 8  83952497.00847                  20502035.133
                  20502044.258                          51.600          43.000

 124593655.080 6  97086032.52844                  23709392.867
                  23709404.391                          41.100          26.500

 119028756.686 7  92749747.19445                  22650403.711
                  22650411.906                          45.300          30.000

 110686141.970 8  86249042.02746                  21062861.109
                  21062866.145                          50.900          39.900

 121134045.306 7  94390269.90645                  23051030.742
                  23051038.059                          44.700          30.900

 118017178.109 7  91961410.09645                  22457905.219
                  22457914.055                          46.400          34.000

 16  1  1  0  0 10.0000000  0  7G01G03G06G16G23G31G32
 130695828.320 6 101840934.08843                  24870622.898
                  24870642.617                          37.700          20.900

 107740169.949 8  83953453.82647                  20502268.914
                  20502278.129                          51.400          42.700

 124592699.818 6  97085288.17044                  23709211.320
                  23709222.813                          41.200          28.800

 119025737.941 7  92747394.93444                  22649829.070
                  22649836.961                          45.000          29.400

 110684521.588 8  86247779.39846                  21062553.086
                  21062557.867                          51.200          39.900

 121137259.089 7  94392774.16945                  23051642.406
                  23051649.727                          45.000          31.900

 118020233.741 7  91963791.10745                  22458486.805
                  22458495.527                          46.300          34.600

 16  1  1  0  0 11.0000000  0  7G01G03G06G16G23G31G32
 130699344.487 6 101843673.94843                  24871292.602
                  24871311.820                          37.300          20.900

 107741398.376 8  83954411.04447                  20502502.656
                  20502511.504                          51.800          42.600

 124591745.125 7  97084544.26044                  23709029.820
                  23709040.816                          42.000          27.500

 119022719.522 7  92745042.92544                  22649254.805
                  22649262.688                          44.900          29.600

 110682901.419 8  86246516.93146                  21062244.586
                  21062249.055                          51.000          39.600

 121140473.013 7  94395278.53945                  23052254.102
                  23052261.586                          44.700          31.500

 118023289.557 7  91966172.26545                  22459068.031
                  22459077.031                          46.600          33.900

 16  1  1  0  0 12.0000000  0  7G01G03G06G16G23G31G32
 130702860.616 6 101846413.78543                  24871961.125
                  24871981.379                          37.700          21.300

 107742627.446 8  83955368.75547                  20502736.438
                  20502745.258                          51.500          42.800

 124590791.078 7  97083800.84644                  23708848.406
                  23708859.734                          42.300          28.300

 119019701.538 7  92742691.26045                  22648680.531
                  22648688.375                          44.900          30.700

 110681281.559 8  86245254.70446                  21061936.180
                  21061940.820                          51.000          39.500

 121143687.141 7  94397783.05345                  23052865.852
                  23052873.020                          44.700          32.100

 118026345.716 7  91968553.68945                  22459650.344
                  22459658.840                          46.700          34.100

 16  1  1  0  0 13.0000000  0  7G01G03G06G16G23G31G32
 130706376.762 6 101849153.62843                  24872630.969
                  24872650.160                          37.600          21.500

 107743857.075 8  83956326.90947                  20502970.531
                  20502979.715                          51.200          42.600

 124589837.643 7  97083057.91144                  23708666.977
                  23708678.020                          42.300          27.900

 119016683.944 7  92740339.89144                  22648106.313
                  22648114.137                          45.100          29.800

 110679661.958 8  86243992.67546                  21061628.133
                  21061633.215                          51.000          39.800

 121146901.470 7  94400287.74445                  23053477.375
                  23053484.605                          44.300          31.200

 118029402.150 7  91970935.32145                  22460231.555
                  22460240.801                          47.100          34.300

 16  1  1  0  0 14.0000000  0  7G01G03G06G16G23G31G32
 130709892.862 6 101851893.44443                  24873300.250
                  24873319.055                          37.400          22.000

 107745087.288 8  83957285.52047                  20503204.555
                  20503213.516                          51.400          42.900

 124588884.832 7  97082315.46544                  23708486.016
                  23708496.988                          42.000          28.000

 119013666.733 7  92737988.82445                  22647532.117
                  22647539.848                          45.200          30.600

 110678042.651 8  86242730.87846                  21061319.789
                  21061325.047                          50.700          39.300

 121150115.974 7  94402792.56045                  23054088.789
                  23054096.113                          44.500          31.600

 118032458.840 7  91973317.16245                  22460812.977
                  22460822.043                          46.600          33.700

 16  1  1  0  0 15.0000000  0  7G01G03G06G16G23G31G32
 130713408.860 6 101854633.17143                  24873968.891
                  24873988.180                          37.600          22.000

 107746318.029 8  83958244.54147                  20503438.953
                  20503447.906                          51.200          42.900

 124587932.586 6  97081573.45544                  23708304.313
                  23708315.602                          41.500          27.500

 119010649.882 7  92735638.03644                  22646958.266
                  22646966.254                          45.300          29.700

 110676423.546 8  86241469.24046                  21061011.578
                  21061016.777                          50.900          39.300

 121153330.618 7  94405297.49045                  23054700.641
                  23054708.496                          44.500          32.300

 118035515.784 7  91975699.19145                  22461394.516
                  22461403.699                          46.600          34.200

 16  1  1  0  0 16.0000000  0  7G01G03G06G16G23G31G32
 130716924.933 6 101857372.97143                  24874637.461
                  24874657.195                          37.900          22.200

 107747549.467 8  83959204.09847                  20503673.211
                  20503682.410                          51.000          43.100

 124586981.101 6  97080832.04444                  23708123.234
                  23708134.770                          41.800          28.000

 119007633.496 7  92733287.61144                  22646383.758
                  22646392.016                          44.900          29.900

 110674804.832 8  86240207.90546                  21060703.656
                  21060708.586                          50.600          39.500

 121156545.553 7  94407802.64345                  23055312.273
                  23055319.852                          44.700          31.200

 118038573.109 7  91978081.52845                  22461976.789
                  22461985.578                          46.100          34.200

 16  1  1  0  0 17.0000000  0  7G01G03G06G16G23G31G32
 130720440.971 6 101860112.73143                  24875306.852
                  24875326.395                          37.700          22.200

 107748781.475 8  83960164.10547                  20503907.727
                  20503916.410                          51.000          43.100

 124586030.175 7  97080091.07044                  23707942.289
                  23707953.418                          42.000          27.700

 119004617.523 7  92730937.50044                  22645811.016
                  22645818.434                          45.400          29.800

 110673186.376 8  86238946.77646                  21060395.688
                  21060400.586                          50.800          40.100

 121159760.633 7  94410307.91245                  23055924.000
                  23055932.066                          44.800          32.000

 118041630.704 7  91980464.06745                  22462558.336
                  22462567.336                          46.300          34.800

 16  1  1  0  0 18.0000000  0  7G01G03G06G16G23G31G32
 130723956.975 6 101862852.48243                  24875976.016
                  24875995.547                          37.900          21.800

 107750014.061 8  83961124.56147                  20504142.289
                  20504151.328                          51.100          42.900

 124585079.902 7  97079350.60244                  23707761.266
                  23707772.648                          42.600          27.700

 119001601.929 7  92728587.69545                  22645236.922
                  22645244.309                          45.200          30.200

 110671568.197 8  86237685.85446                  21060087.469
                  21060093.000                          50.100          39.900

 121162975.958 7  94412813.36945                  23056536.188
                  23056543.813                          45.300          32.100

 118044688.609 7  91982846.85045                  22463140.391
                  22463149.270                          46.200          34.000

 16  1  1  0  0 19.0000000  0  7G01G03G06G16G23G31G32
 130727473.029 6 101865592.26743                  24876644.961
                  24876664.621                          37.700          22.300

 107751247.273 8  83962085.51047                  20504377.031
                  20504385.875                          51.300          43.400

 124584130.286 7  97078610.63644                  23707580.727
                  23707591.922                          42.500          28.500

 118998586.793 7  92726238.24244                  22644663.031
                  22644671.016                          45.500          29.800

 110669950.316 8  86236425.17446                  21059779.570
                  21059784.703                          49.900          40.300

 121166191.443 7  94415318.95345                  23057148.477
                  23057155.559                          45.100          32.000

 118047746.793 7  91985229.84445                  22463721.992
                  22463731.137                          45.600          34.200

 16  1  1  0  0 20.0000000  0  7G01G03G06G16G23G31G32
 130730989.007 6 101868331.97243                  24877314.539
                  24877334.195                          37.400          21.500

 107752481.095 8  83963046.92847                  20504611.523
                  20504621.078                          51.100          42.700

 124583181.308 7  97077871.17644                  23707399.797
                  23707411.223                          42.500          27.900

 118995572.054 7  92723889.09844                  22644089.531
                  22644097.016                          45.700          29.600

 110668332.757 8  86235164.74046                  21059472.164
                  21059477.301                          49.600          40.100

 121169407.165 7  94417824.71745                  23057759.867
                  23057767.734                          45.400          32.400

 118050805.291 7  91987613.08545                  22464304.039
                  22464312.730                          45.600          33.800

 16  1  1  0  0 21.0000000  0  7G01G03G06G16G23G31G32
 130734504.941 6 101871071.65443                  24877983.508
                  24878002.617                          37.100          21.100

 107753715.460 8  83964008.77347                  20504846.438
                  20504855.387                          50.800          42.500

 124582232.892 7  97077132.14344                  23707219.352
                  23707230.566                          42.300          28.100

 118992557.663 7  92721540.22544                  22643515.898
                  22643523.602                          44.700          29.900

 110666715.412 8  86233904.47046                  21059164.164
                  21059169.512                          50.100          40.100

 121172623.029 7  94420330.59245                  23058372.352
                  23058379.879                          45.100          32.000

 118053864.044 7  91989996.52945                  22464886.383
                  22464895.180                          46.100          33.900

 16  1  1  0  0 22.0000000  0  7G01G03G06G16G23G31G32
 130738020.874 6 101873811.32743                  24878652.523
                  24878671.934                          37.000          20.600

 107754950.435 8  83964971.08947                  20505081.641
                  20505090.223                          50.900          42.400

 124581285.145 7  97076393.63944                  23707039.070
                  23707050.188                          42.500          28.300

 118989543.709 7  92719191.69745                  22642941.578
                  22642949.688                          44.700          30.000

 110665098.379 8  86232644.44346                  21058856.609
                  21058861.746                          50.300          40.100

 121175839.097 7  94422836.63045                  23058984.242
                  23058991.332                          45.100          32.100

 118056923.086 7  91992380.19345                  22465468.594
                  22465477.340                          46.100          33.700

 16  1  1  0  0 23.0000000  0  7G01G03G06G16G23G31G32
 130741536.778 6 101876550.96843                  24879321.250
                  24879341.164                          37.300          20.400

 107756185.981 8  83965933.85347                  20505316.688
                  20505325.613                          50.700          42.700

 124580337.999 7  97075655.60144                  23706859.539
                  23706870.488                          42.600          28.500

 118986530.127 7  92716843.45745                  22642368.352
                  22642375.977                          44.900          30.200

 110663481.598 8  86231384.61746                  21058548.672
                  21058554.230                          50.500          39.900

 121179055.340 7  94425342.80245                  23059595.695
                  23059603.473                          45.300          32.300

 118059982.416 7  91994764.08145                  22466050.727
                  22466059.191                          46.000          34.500

 16  1  1  0  0 24.0000000  0  7G01G03G06G16G23G31G32
 130745052.656 6 101879290.61043                  24879989.570
                  24880010.051                          37.500          20.100

 107757422.122 8  83966897.07547                  20505552.078
                  20505560.641                          50.900          43.100

 124579391.511 7  97074918.07044                  23706678.984
                  23706690.504                          42.900          28.300

 118983516.961 7  92714495.54345                  22641795.203
                  22641802.465                          44.800          30.400

 110661865.119 8  86230125.02446                  21058241.148
                  21058246.219                          50.200          39.700

 121182271.804 7  94427849.14645                  23060208.359
                  23060215.504                          45.500          32.100

 118063042.038 7  91997148.19945                  22466632.602
                  22466640.941                          46.400          33.800

 16  1  1  0  0 25.0000000  0  7G01G03G06G16G23G31G32
 130748568.540 6 101882030.24743                  24880659.086
                  24880678.805                          37.200          19.900

 107758658.919 8  83967860.81547                  20505787.195
                  20505796.039                          51.000          42.600

 124578445.683 7  97074181.06344                  23706499.203
                  23706510.645                          42.800          27.900

 118980504.233 7  92712147.96844                  22641221.273
                  22641229.516                          44.500          29.800

 110660248.963 8  86228865.68246                  21057933.820
                  21057938.750                          50.500          39.900

 121185488.503 7  94430355.68545                  23060820.430
                  23060827.887                          45.800          31.900

 118066101.998 7  91999532.58445                  22467215.242
                  22467222.992                          45.900          33.600

 16  1  1  0  0 26.0000000  0  7G01G03G06G16G23G31G32
 130752084.446 6 101884769.91243                  24881328.547
                  24881348.020                          37.800          21.700

 107759896.322 8  83968825.02747                  20506022.641
                  20506031.688                          50.800          42.600

 124577500.516 7  97073444.56944                  23706319.211
                  23706330.961                          42.400          28.600

 118977491.962 7  92709800.74745                  22640648.578
                  22640656.238                          44.700          30.200

 110658633.128 8  86227606.58946                  21057626.461
                  21057631.648                          50.400          39.700

 121188705.419 7  94432862.38445                  23061432.727
                  23061439.777                          45.500          32.400

 118069162.276 7  92001917.21645                  22467797.516
                  22467806.016                          45.400          33.600

 16  1  1  0  0 27.0000000  0  7G01G03G06G16G23G31G32
 130755600.288 6 101887509.52143                  24881996.922
                  24882016.836                          37.500          21.500

 107761134.282 8  83969789.66947                  20506258.234
                  20506267.230                          50.700          42.300

 124576555.937 7  97072708.54044                  23706139.492
                  23706151.340                          42.200          28.200

 118974480.007 7  92707453.77845                  22640075.133
                  22640083.164                          45.200          30.300

 110657017.524 8  86226347.68046                  21057318.695
                  21057324.191                          50.800          39.900

 121191922.498 7  94435369.21145                  23062044.391
                  23062052.070                          45.700          31.600

 118072222.790 7  92004302.02845                  22468379.828
                  22468388.348                          45.700          33.300

 16  1  1  0  0 28.0000000  0  7G01G03G06G16G23G31G32
 130759116.057 6 101890249.05243                  24882666.031
                  24882685.980                          37.300          21.500

 107762372.775 8  83970754.72847                  20506494.094
                  20506503.098                          51.000          42.700

 124575611.935 7  97071972.95344                  23705960.047
                  23705970.969                          42.400          27.800

 118971468.441 7  92705107.10744                  22639502.203
                  22639510.555                          45.500          29.700

 110655402.153 8  86225088.95646                  21057011.641
                  21057017.051                          50.900          39.800

 121195139.716 7  94437876.14445                  23062657.180
                  23062664.016                          45.700          31.500

 118075283.549 7  92006687.03845                  22468962.258
                  22468970.598                          45.600          34.000

 16  1  1  0  0 29.0000000  0  7G01G03G06G16G23G31G32
 130762631.821 6 101892988.60343                  24883335.125
                  24883354.738                          37.100          21.500

 107763611.890 8  83971720.27447                  20506729.641
                  20506738.297                          51.000          42.400

 124574668.596 7  97071237.88244                  23705780.477
                  23705792.379                          42.500          29.000

 118968457.299 7  92702760.77445                  22638929.148
                  22638937.176                          45.300          31.000

 110653787.077 8  86223830.45946                  21056704.180
                  21056709.375                          50.900          40.100

 121198357.135 7  94440383.23745                  23063269.266
                  23063276.141                          45.500          31.300

 118078344.625 7  92009072.28845                  22469544.508
                  22469553.473                          45.900          34.100

 16  1  1  0  0 30.0000000  0  7G01G03G06G16G23G31G32
 130766147.564 6 101895728.13343                  24884004.547
                  24884023.707                          37.300          20.600

 107764851.614 8  83972686.29247                  20506965.648
                  20506974.508                          51.000          42.600

 124573725.902 7  97070503.32044                  23705601.172
                  23705612.855                          42.400          28.600

 118965446.568 7  92700414.74845                  22638356.359
                  22638364.250                          44.700          30.200

 110652172.333 8  86222572.21746                  21056396.938
                  21056402.094                          51.000          40.000

 121201574.792 7  94442890.51145                  23063881.438
                  23063888.313                          45.600          31.400

 118081406.003 7  92011457.77445                  22470126.984
                  22470136.035                          45.800          33.900

 16  1  1  0  0 31.0000000  0  7G01G03G06G16G23G31G32
 130769663.329 6 101898467.70243                  24884673.539
                  24884693.074                          37.200          20.600

 107766091.929 8  83973652.77047                  20507201.680
                  20507210.621                          50.900          42.500

 124572783.828 7  97069769.24144                  23705421.336
                  23705433.188                          42.200          28.300

 118962436.251 7  92698069.05445                  22637783.203
                  22637791.395                          44.900          30.500

 110650557.839 8  86221314.16946                  21056089.820
                  21056095.043                          50.600          40.000

 121204792.630 7  94445397.93045                  23064493.867
                  23064500.648                          45.800          31.300

 118084467.680 7  92013843.49645                  22470709.727
                  22470718.871                          46.200          34.100

 16  1  1  0  0 32.0000000  0  7G01G03G06G16G23G31G32
 130773178.963 6 101901207.15743                  24885342.508
                  24885361.984                          36.500          20.900

 107767332.772 8  83974619.66347                  20507437.719
                  20507446.762                          50.600          43.200

 124571842.374 7  97069035.64344                  23705242.609
                  23705254.223                          42.300          28.400

 118959426.270 7  92695723.62244                  22637210.820
                  22637218.922                          45.000          29.600

 110648943.598 8  86220056.32646                  21055782.516
                  21055787.461                          50.500          40.000

 121208010.606 7  94447905.45045                  23065106.047
                  23065112.848                          45.800          31.000

 118087529.582 7  92016229.39545                  22471292.297
                  22471301.469                          46.000          34.200

 16  1  1  0  0 33.0000000  0  7G01G03G06G16G23G31G32
 130776694.605 6 101903946.60943                  24886011.375
                  24886031.020                          36.800          21.500

 107768574.259 8  83975587.05547                  20507673.586
                  20507682.969                          50.500          43.000

 124570901.545 7  97068302.52544                  23705063.461
                  23705075.066                          42.100          29.300

 118956416.751 7  92693378.54245                  22636637.992
                  22636646.340                          45.200          30.400

 110647329.635 8  86218798.69246                  21055475.555
                  21055480.574                          50.500          40.300

 121211228.813 7  94450413.15945                  23065718.344
                  23065725.441                          45.500          31.300

 118090591.791 7  92018615.52745                  22471875.094
                  22471883.965                          45.900          34.100

 16  1  1  0  0 34.0000000  0  7G01G03G06G16G23G31G32
 130780210.218 6 101906686.03043                  24886681.414
                  24886700.098                          36.800          21.100

 107769816.319 8  83976554.89847                  20507910.195
                  20507919.629                          50.900          43.100

 124569961.352 7  97067569.91544                  23704884.906
                  23704895.918                          42.300          28.100

 118953407.607 7  92691033.76345                  22636065.188
                  22636073.637                          45.400          30.200

 110645715.984 8  86217541.30046                  21055168.227
                  21055173.336                          50.500          39.900

 121214447.199 7  94452921.00345                  23066331.203
                  23066337.672                          45.900          30.800

 118093654.295 7  92021001.89345                  22472457.969
                  22472466.730                          46.000          34.000

 16  1  1  0  0 35.0000000  0  7G01G03G06G16G23G31G32
 130783725.933 6 101909425.54743                  24887349.898
                  24887368.824                          36.600          20.900

 107771059.045 8  83977523.25347                  20508146.523
                  20508155.598                          50.500          43.200

 124569021.833 7  97066837.82144                  23704706.273
                  23704716.910                          42.300          28.300

 118950398.954 7  92688689.36245                  22635492.781
                  22635501.254                          45.600          30.600

 110644102.694 8  86216284.19646                  21054861.203
                  21054866.680                          50.500          39.800

 121217665.831 7  94455429.04045                  23066943.195
                  23066950.105                          45.800          31.200

 118096717.170 7  92023388.55145                  22473040.867
                  22473049.402                          46.000          34.000

 16  1  1  0  0 36.0000000  0  7G01G03G06G16G23G31G32
 130787241.532 6 101912164.96343                  24888018.977
                  24888037.941                          37.200          21.300

 107772302.316 8  83978492.04147                  20508383.406
                  20508392.406                          51.000          43.000

 124568082.929 6  97066106.21444                  23704527.188
                  23704538.086                          41.600          28.900

 118947390.674 7  92686345.24645                  22634920.789
                  22634928.227                          45.500          30.800

 110642489.629 8  86215027.26446                  21054554.523
                  21054559.785                          50.600          39.900

 121220884.648 7  94457937.22445                  23067555.523
                  23067562.676                          45.700          31.000

 118099780.279 7  92025775.38245                  22473623.945
                  22473632.086                          46.300          34.100

 16  1  1  0  0 37.0000000  0  7G01G03G06G16G23G31G32
 130790757.128 6 101914904.38543                  24888687.289
                  24888706.754                          37.500          21.700

 107773546.208 8  83979461.30247                  20508619.867
                  20508629.203                          50.600          43.000

 124567144.655 7  97065375.09244                  23704348.297
                  23704359.707                          42.400          29.300

 118944382.779 7  92684001.43945                  22634348.234
                  22634356.023                          45.500          30.400

 110640876.871 8  86213770.56646                  21054247.453
                  21054252.719                          50.300          39.800

 121224103.651 7  94460445.55045                  23068168.250
                  23068175.156                          45.700          31.000

 118102843.691 7  92028162.45645                  22474207.008
                  22474215.367                          46.200          34.100

 16  1  1  0  0 38.0000000  0  7G01G03G06G16G23G31G32
 130794272.692 6 101917643.76043                  24889357.117
                  24889375.918                          37.800          20.600

 107774790.647 8  83980430.99847                  20508857.016
                  20508866.359                          50.500          42.800

 124566206.997 6  97064644.45544                  23704170.234
                  23704181.531                          41.400          28.900

 118941375.262 7  92681657.93245                  22633775.914
                  22633783.836                          45.100          30.000

 110639264.356 8  86212514.06046                  21053940.383
                  21053945.859                          50.600          39.900

 121227322.815 7  94462954.00145                  23068780.984
                  23068787.648                          45.700          31.200

 118105907.381 7  92030549.74645                  22474790.195
                  22474798.855                          46.100          33.600

 16  1  1  0  0 39.0000000  0  7G01G03G06G16G23G31G32
 130797788.229 6 101920383.12643                  24890025.633
                  24890044.828                          36.800          20.900

 107776035.704 8  83981401.16647                  20509094.242
                  20509103.203                          50.400          42.900

 124565269.951 6  97063914.28244                  23703991.711
                  23704003.063                          41.700          28.200

 118938368.176 7  92679314.75145                  22633203.555
                  22633211.176                          44.900          30.300

 110637652.159 8  86211257.80946                  21053633.891
                  21053639.129                          50.300          39.900

 121230542.201 7  94465462.62545                  23069393.383
                  23069400.367                          45.400          31.600

 118108971.363 7  92032937.26045                  22475373.109
                  22475381.629                          45.900          34.400

 16  1  1  0  0 40.0000000  0  7G01G03G06G16G23G31G32
 130801303.723 6 101923122.46743                  24890694.508
                  24890713.645                          37.100          20.400

 107777281.359 8  83982371.81147                  20509331.031
                  20509340.285                          50.300          43.100

 124564333.602 7  97063184.65544                  23703813.391
                  23703824.836                          42.000          28.600

 118935361.520 7  92676971.91445                  22632631.242
                  22632639.020                          44.500          30.800

 110636040.247 8  86210001.77246                  21053327.000
                  21053332.230                          50.200          40.100

 121233761.781 7  94467971.39645                  23070006.313
                  23070013.082                          45.300          31.300

 118112035.654 7  92035325.02345                  22475956.297
                  22475964.711                          45.700          33.900

 16  1  1  0  0 41.0000000  0  7G01G03G06G16G23G31G32
 130804819.205 6 101925861.80943                  24891363.875
                  24891382.719                          37.100          21.300

 107778527.590 8  83983342.90047                  20509567.852
                  20509577.195                          50.500          42.600

 124563397.835 7  97062455.48144                  23703635.219
                  23703646.715                          42.300          26.700

 118932355.210 7  92674629.33845                  22632059.047
                  22632067.281                          44.700          30.400

 110634428.585 8  86208745.93546                  21053020.508
                  21053025.598                          50.500          40.100

 121236981.531 7  94470480.30245                  23070618.742
                  23070625.285                          45.300          31.600

 118115100.199 7  92037712.98045                  22476539.313
                  22476547.957                          45.900          34.100

 16  1  1  0  0 42.0000000  0  7G01G03G06G16G23G31G32
 130808334.669 6 101928601.12943                  24892033.117
                  24892052.082                          36.900          21.100

 107779774.417 8  83984314.45447                  20509805.398
                  20509814.504                          50.500          42.700

 124562462.744 7  97061726.83544                  23703458.219
                  23703468.727                          42.300          27.000

 118929349.348 7  92672287.11045                  22631487.359
                  22631495.336                          44.000          30.400

 110632817.250 8  86207490.34646                  21052713.930
                  21052719.004                          50.900          39.800

 121240201.515 7  94472989.39145                  23071231.133
                  23071238.480                          44.000          31.200

 118118165.062 7  92040101.18545                  22477121.953
                  22477131.027                          46.000          34.000

 16  1  1  0  0 43.0000000  0  7G01G03G06G16G23G31G32
 130811850.156 6 101931340.46943                  24892701.750
                  24892720.555                          36.400          20.900

 107781021.862 8  83985286.48447                  20510042.906
                  20510051.840                          50.500          42.600

 124561528.228 7  97060998.64244                  23703280.078
                  23703290.559                          42.100          27.900

 118926343.896 7  92669945.20144                  22630915.430
                  22630923.047                          44.000          29.900

 110631206.192 8  86206234.98146                  21052407.172
                  21052412.379                          51.100          39.900

 121243421.676 7  94475498.62245                  23071844.242
                  23071850.938                          44.300          31.900

 118121230.222 7  92042489.61945                  22477705.633
                  22477714.457                          45.800          34.800

 16  1  1  0  0 44.0000000  0  7G01G03G06G16G23G31G32
 130815365.602 6 101934079.76943                  24893370.570
                  24893390.176                          36.100          20.900

 107782269.906 8  83986258.98947                  20510280.336
                  20510289.141                          49.800          42.800

 124560594.402 7  97060270.98444                  23703101.633
                  23703112.766                          42.400          28.000

 118923338.861 7  92667603.61944                  22630343.484
                  22630351.195                          43.400          28.900

 110629595.447 8  86204979.85146                  21052100.570
                  21052105.844                          50.800          40.400

 121246642.046 7  94478008.01145                  23072457.719
                  23072463.758                          44.400          31.100

 118124295.695 7  92044878.29845                  22478288.648
                  22478297.887                          45.700          34.400

 16  1  1  0  0 45.0000000  0  7G01G03G06G16G23G31G32
 130818880.993 5 101936819.02143                  24894039.227
                  24894058.820                          35.800          20.600

 107783518.503 8  83987231.92247                  20510517.930
                  20510527.145                          50.100          42.500

 124559661.182 7  97059543.80744                  23702924.523
                  23702935.258                          42.400          27.100

 118920334.213 7  92665262.34244                  22629771.336
                  22629779.641                          43.700          29.700

 110627984.951 8  86203724.92046                  21051794.242
                  21051799.367                          51.100          40.600

 121249862.569 7  94480517.52645                  23073070.125
                  23073076.113                          44.300          31.200

 118127361.414 7  92047267.16945                  22478871.914
                  22478881.145                          45.300          34.200

 16  1  1  0  0 46.0000000  0  7G01G03G06G16G23G31G32
 130822396.332 6 101939558.25143                  24894708.555
                  24894727.891                          36.300          20.900

 107784767.731 8  83988205.34447                  20510755.391
                  20510764.590                          50.000          43.000

 124558728.599 7  97058817.12544                  23702746.445
                  23702757.887                          42.300          28.100

 118917329.999 7  92662921.39945                  22629200.180
                  22629208.078                          43.600          30.500

 110626374.759 8  86202470.23046                  21051487.891
                  21051493.098                          50.900          40.400

 121253083.337 7  94483027.22345                  23073683.008
                  23073689.426                          45.000          31.000

 118130427.454 7  92049656.29245                  22479455.688
                  22479464.504                          45.300          34.400

 16  1  1  0  0 47.0000000  0  7G01G03G06G16G23G31G32
 130825911.679 5 101942297.46243                  24895377.945
                  24895396.438                          35.700          21.100

 107786017.519 8  83989179.20247                  20510993.297
                  20511002.430                          49.800          42.600

 124557796.640 7  97058090.92144                  23702569.820
                  23702580.242                          42.400          28.400

 118914326.182 7  92660580.77145                  22628628.250
                  22628636.824                          43.800          30.800

 110624764.833 8  86201215.74646                  21051181.602
                  21051186.777                          50.800          40.800

 121256304.248 7  94485537.03545                  23074295.625
                  23074302.402                          45.100          31.300

 118133493.754 7  92052045.61245                  22480039.195
                  22480048.137                          45.200          34.000

 16  1  1  0  0 48.0000000  0  7G01G03G06G16G23G31G32
 130829426.978 5 101945036.63743                  24896046.070
                  24896065.531                          35.200          21.100

 107787267.879 8  83990153.50547                  20511231.516
                  20511240.207                          49.500          42.600

 124556865.302 7  97057365.20044                  23702392.578
                  23702403.254                          42.800          27.000

 118911322.737 7  92658240.42845                  22628056.672
                  22628064.832                          44.100          31.500

 110623155.178 8  86199961.46246                  21050875.039
                  21050880.598                          50.700          40.600

 121259525.353 7  94488046.99345                  23074908.563
                  23074915.242                          45.200          31.300

 118136560.317 7  92054435.13845                  22480622.703
                  22480631.406                          45.900          34.200

 16  1  1  0  0 49.0000000  0  7G01G03G06G16G23G31G32
 130832942.335 6 101947775.86443                  24896715.555
                  24896734.531                          36.000          20.600

 107788518.920 8  83991128.34647                  20511469.289
                  20511478.492                          49.800          42.500

 124555934.638 7  97056640.00844                  23702215.250
                  23702225.984                          42.400          28.200

 118908319.773 7  92655900.45745                  22627485.695
                  22627493.555                          44.600          30.900

 110621545.887 8  86198707.47646                  21050568.813
                  21050573.898                          50.900          40.600

 121262746.693 7  94490557.12345                  23075521.641
                  23075528.328                          45.100          30.800

 118139627.262 7  92056824.96045                  22481206.703
                  22481214.949                          45.300          34.000

 16  1  1  0  0 50.0000000  0  7G01G03G06G16G23G31G32
 130836457.644 6 101950515.05343                  24897384.148
                  24897403.355                          36.400          20.600

 107789770.514 8  83992103.61647                  20511707.547
                  20511716.707                          50.000          42.800

 124555004.625 7  97055915.32444                  23702038.352
                  23702049.359                          42.300          26.800

 118905317.192 7  92653560.79245                  22626914.289
                  22626921.996                          44.900          30.500

 110619936.839 8  86197453.67346                  21050262.555
                  21050267.805                          51.100          40.700

 121265968.210 7  94493067.40245                  23076135.188
                  23076141.109                          45.200          31.400

 118142694.459 7  92059214.98245                  22481789.914
                  22481799.086                          45.700          34.000

 16  1  1  0  0 51.0000000  0  7G01G03G06G16G23G31G32
 130839972.889 6 101953254.20543                  24898053.742
                  24898072.484                          36.300          20.100

 107791022.680 8  83993079.33147                  20511945.867
                  20511954.973                          50.200          42.700

 124554075.211 7  97055191.09544                  23701861.648
                  23701872.371                          42.600          28.400

 118902314.986 7  92651221.41645                  22626342.547
                  22626351.234                          45.000          30.100

 110618328.056 8  86196200.07846                  21049956.586
                  21049961.820                          51.100          40.800

 121269189.906 7  94495577.82445                  23076747.969
                  23076754.715                          45.100          30.800

 118145761.920 7  92061605.20745                  22482373.969
                  22482382.645                          45.900          33.800

 16  1  1  0  0 52.0000000  0  7G01G03G06G16G23G31G32
 130843488.169 6 101955993.37343                  24898722.188
                  24898741.531                          36.900          20.400

 107792275.478 8  83994055.54047                  20512184.203
                  20512192.965                          50.500          42.600

 124553146.391 7  97054467.34344                  23701684.953
                  23701695.391                          43.000          27.900

 118899313.230 7  92648882.38945                  22625771.523
                  22625779.574                          45.000          30.500

 110616719.593 8  86194946.73146                  21049650.508
                  21049655.793                          51.100          40.000

 121272411.820 7  94498088.41445                  23077360.906
                  23077368.000                          45.100          30.900

 118148829.699 7  92063995.68845                  22482957.711
                  22482966.223                          45.000          34.000

 16  1  1  0  0 53.0000000  0  7G01G03G06G16G23G31G32
 130847003.349 6 101958732.46343                  24899391.633
                  24899410.473                          36.400          20.100

 107793528.847 8  83995032.18947                  20512422.805
                  20512431.645                          50.000          42.800

 124552218.274 7  97053744.13944                  23701508.023
                  23701518.375                          42.700          28.100

 118896311.851 7  92646543.66245                  22625200.336
                  22625208.684                          44.900          30.500

 110615111.401 8  86193693.59946                  21049344.313
                  21049349.543                          50.400          39.600

 121275633.909 7  94500599.14845                  23077974.242
                  23077980.691                          45.000          30.200

 118151897.763 7  92066386.38745                  22483541.719
                  22483550.531                          45.200          34.000

 16  1  1  0  0 54.0000000  0  7G01G03G06G16G23G31G32
 130850518.510 6 101961471.52943                  24900060.898
                  24900079.082                          36.400          20.100

 107794782.795 8  83996009.29847                  20512661.375
                  20512670.090                          50.200          42.600

 124551290.699 7  97053021.35644                  23701331.617
                  23701342.426                          42.200          28.500

 118893310.881 7  92644205.24745                  22624629.500
                  22624637.473                          44.700          30.500

 110613503.485 8  86192440.67546                  21049038.586
                  21049043.820                          50.700          39.700

